"Plant.Code","Plant.Name","State","Latitude","Longitude","DC","HB","ON","PN","RC","RT","NA"
2,"Bankhead Dam","AL","33.458665000000003","-87.356823000000006",0,0,0,0,0,0,47391
3,"Barry","AL","31.006900000000002","-88.010300000000001",0,0,5235542.968,0,7745486,0,0
4,"Walter Bouldin Dam","AL","32.583888999999999","-86.283056000000002",0,0,0,0,0,0,590121
7,"Gadsden","AL","34.012799999999999","-85.970799999999997",0,0,216750.001,0,0,0,0
8,"Gorgas","AL","33.644343999999997","-87.196485999999993",0,0,5247433.018,0,0,0,0
9,"Copper","TX","31.756900000000002","-106.375",0,0,0,0,0,0,39856
10,"Greene County","AL","32.601700000000001","-87.781099999999995",0,0,2756619.032,0,0,0,101305
11,"H Neely Henry Dam","AL","33.784500000000001","-86.052400000000006",0,0,0,0,0,0,198568
12,"Holt Dam","AL","33.255299999999998","-87.4495",0,0,0,0,0,0,72223
13,"Jordan Dam","AL","32.618899999999996","-86.254800000000003",0,0,0,0,0,0,294067
14,"Logan Martin Dam","AL","33.425877999999997","-86.337547000000001",0,0,0,0,0,0,346035
15,"Lay Dam","AL","32.963299999999997","-86.518699999999995",0,0,0,0,0,0,561938
16,"Martin Dam","AL","32.680394","-85.911441999999994",0,0,0,0,0,0,348048
17,"Mitchell Dam","AL","32.806024999999998","-86.444891999999996",0,0,0,0,0,0,466344
18,"Lewis Smith Dam","AL","33.940600000000003","-87.107699999999994",0,0,0,0,0,0,243605
19,"Thurlow Dam","AL","32.535435999999997","-85.887613999999999",0,0,0,0,0,0,228345
20,"Weiss Dam","AL","34.172142000000001","-85.753805999999997",0,0,0,0,0,0,209892
21,"Yates Dam","AL","32.574300000000001","-85.890100000000004",0,0,0,0,0,0,138401
26,"E C Gaston","AL","33.244211","-86.458055999999999",0,0,3216304.481,0,3216304.481,0,152
30,"Madelia","MN","44.052500000000002","-94.415300000000002",0,0,0,0,0,0,-140
34,"Rollins","CA","39.134259","-120.95334099999999",0,0,0,0,0,0,27008
38,"Millers Ferry","AL","32.100881000000001","-87.399766999999997",0,0,0,0,0,0,356205
46,"Browns Ferry","AL","34.7042","-87.118899999999996",0,0,26738300,0,0,0,0
47,"Colbert","AL","34.743899999999996","-87.848600000000005",0,0,3588287.031,0,0,0,6494
48,"Guntersville","AL","34.421272000000002","-86.393930999999995",0,0,0,0,0,0,713367
49,"Wheeler Dam","AL","34.806899999999999","-87.381900000000002",0,0,0,0,0,0,1247298
50,"Widows Creek","AL","34.883021999999997","-85.755252999999996",0,0,3705847.958,0,0,0,0
51,"Dolet Hills","LA","32.030555999999997","-93.569166999999993",0,0,0,0,2899536.98,0,0
53,"Gantt","AL","31.403300000000002","-86.479468999999995",0,0,0,0,0,0,6932
54,"J K Smith","KY","37.883299999999998","-84.101699999999994",0,0,0,0,0,0,472048.999
55,"Point A","AL","31.361146000000002","-86.518306999999993",0,0,0,0,0,0,7764
56,"Charles R Lowman","AL","31.488019000000001","-87.910747000000001",0,0,938430.5035,0,938430.5035,0,0
59,"Platte","NE","40.854765","-98.348222000000007",0,0,0,0,517872.998,0,0
60,"Whelan Energy Center","NE","40.580871999999999","-98.312437000000003",0,0,0,0,1673670.989,0,0
62,"Annex Creek","AK","58.317599999999999","-134.101",0,0,0,0,0,0,27380
63,"Gold Creek","AK","58.310699999999997","-134.41739999999999",0,0,0,0,0,0,5652
64,"Lemon Creek","AK","58.3536","-134.49529999999999",0,0,0,0,0,0,181
65,"Salmon Creek 1","AK","58.326900000000002","-134.4631",0,0,0,0,0,0,22116
66,"Skagway","AK","59.454500000000003","-135.31309999999999",0,0,0,0,0,0,3002
69,"Haines","AK","59.235799999999998","-135.44499999999999",0,0,0,0,0,0,-122
70,"Swan Lake","AK","55.613892","-131.35417000000001",0,0,0,0,0,0,66187
71,"Terror Lake","AK","57.686100000000003","-152.89500000000001",0,0,0,0,0,0,134031
72,"Venice Hydro","CA","34.01135","-118.41679999999999",0,0,0,0,0,0,0
75,"Anchorage 1","AK","61.222099999999998","-149.86609999999999",0,0,0,0,0,0,33642
77,"Eklutna Hydro Project","AK","61.475211000000002","-149.15009000000001",0,0,0,0,0,0,83110
78,"Snettisham","AK","58.141500000000001","-133.73699999999999",0,0,0,0,0,0,285599
79,"Aurora Energy LLC Chena","AK","64.847742999999994","-147.735063",0,0,0,0,0,0,191062
84,"Ketchikan","AK","55.344641000000003","-131.63342499999999",0,0,0,0,0,0,24429
85,"S W Bailey","AK","55.363300000000002","-131.67779999999999",0,0,0,0,0,0,-262902
87,"Escalante","NM","35.415900000000001","-108.08199999999999",0,0,0,0,1389686.981,0,0
88,"Ashokan","NY","41.948999999999998","-74.206299999999999",0,0,0,0,0,0,7924
90,"Snake River","AK","64.505923999999993","-165.429384",0,0,0,0,0,0,30342
91,"Petersburg","AK","56.811039999999998","-132.95709099999999",0,0,0,0,0,0,13840.06
92,"Seward (AK)","AK","60.1083","-149.4417",0,0,0,0,0,0,49
93,"Riley#03a","AK","57.051600000000001","-135.22970000000001",0,0,0,0,0,0,40707
95,"Wrangell","AK","56.452199999999998","-132.3683",0,0,0,0,0,0,673
96,"Beluga","AK","61.186100000000003","-151.03559999999999",0,0,0,0,0,0,1216481
99,"Frederickson","WA","47.079721999999997","-122.36499999999999",0,0,0,0,0,0,14220
100,"South Consolidated","AZ","33.466476999999998","-111.781064",0,0,0,0,0,0,0
104,"J S Eastwood","CA","37.147925999999998","-119.2567",0,0,0,0,0,0,78290
108,"Holcomb","KS","37.930799999999998","-100.9725",0,0,0,0,1981862.044,0,0
109,"Dillingham","AK","59.6708","-157.88999999999999",0,0,0,0,0,0,18459
113,"Cholla","AZ","34.939399999999999","-110.30329999999999",0,0,0,3307633.905,3307633.905,0,14837.173
114,"Douglas","AZ","31.364121999999998","-109.5538",0,0,0,0,0,0,289
116,"Ocotillo","AZ","33.422499999999999","-111.9122",0,0,0,0,74245,0,2044
117,"West Phoenix","AZ","33.441699999999997","-112.1583",0,0,0,0,1603916,0,1545
118,"Saguaro","AZ","32.551699999999997","-111.3",0,0,0,0,0,0,10972
120,"Yucca","AZ","32.721400000000003","-114.7106",0,0,0,0,0,0,347465.998
124,"Demoss Petrie","AZ","32.252273000000002","-110.992148",0,0,0,0,0,0,5566
126,"H Wilson Sundt Generating Station","AZ","32.159999999999997","-110.90470000000001",0,0,0,0,0,0,842819
127,"Oklaunion","TX","34.082500000000003","-99.175299999999993",0,0,0,0,3216641.024,0,0
130,"Cross","SC","33.371389000000001","-80.113332999999997",0,0,0,0,11892580.484,0,0
136,"Seminole (FL)","FL","29.733056000000001","-81.632778000000002",0,0,0,0,8210874.049,0,0
141,"Agua Fria","AZ","33.556100000000001","-112.2153",0,0,0,0,0,0,12617
145,"Horse Mesa","AZ","33.590699999999998","-111.34399999999999",0,0,0,0,0,0,15396
147,"Kyrene","AZ","33.355600000000003","-111.9353",0,0,0,-182,702634,0,-263
148,"Mormon Flat","AZ","33.553600000000003","-111.4431",0,0,0,0,0,0,5195
149,"Roosevelt","AZ","33.671104","-111.16178600000001",0,0,0,0,0,0,37940
150,"Stewart Mountain","AZ","33.566099999999999","-111.536",0,0,0,0,0,0,18341
151,"McClure","CA","37.629359999999998","-120.93138999999999",0,0,0,0,0,0,3400
152,"Davis Dam","AZ","35.197043999999998","-114.570669",0,0,0,0,0,0,1162920
153,"Glen Canyon Dam","AZ","36.936613999999999","-111.48387200000001",0,0,0,0,0,0,3344619
154,"Hoover Dam (NV)","NV","36.015509999999999","-114.738006",0,0,0,0,0,0,2352308
159,"Lake Creek Dam","UT","40.493631000000001","-111.312506",0,0,0,0,0,0,3744
160,"Apache Station","AZ","32.060299999999998","-109.8931",0,0,0,0,2620963.018,0,17064
161,"Turlock Lake","CA","37.611460999999998","-120.594678",0,0,0,0,0,0,-59
162,"Hickman","CA","37.621535999999999","-120.746247",0,0,0,0,0,0,2857
165,"GREC","OK","36.190277999999999","-95.289400000000001",0,0,0,0,4674420.365,0,179.676
166,"Carpenter","AR","34.442500000000003","-93.026200000000003",0,0,0,0,0,0,106981
167,"Cecil Lynch","AR","34.753500000000003","-92.198700000000002",0,0,0,0,0,0,0
169,"Harvey Couch","AR","33.359200000000001","-93.4649",0,0,0,0,0,0,0
170,"Lake Catherine","AR","34.434100000000001","-92.904899999999998",0,0,90653,0,0,0,0
171,"Mabelvale","AR","34.635997000000003","-92.409602000000007",0,0,0,0,0,0,397
172,"Osceola (AR)","AR","35.697499999999998","-90.005300000000005",0,0,0,0,0,0,0
174,"Remmel","AR","34.427199999999999","-92.894099999999995",0,0,0,0,0,0,35577
180,"Volta 2","CA","40.451929999999997","-121.86215",0,0,0,0,0,0,3363
182,"Beaver Dam","AR","36.421506999999998","-93.847373000000005",0,0,0,0,0,0,126245
187,"Degray","AR","34.211913000000003","-93.110962999999998",0,0,0,0,0,0,75645
188,"Greers Ferry Lake","AR","35.520699999999998","-91.9953",0,0,0,0,0,0,149328
193,"Municipal Light","AR","36.385800000000003","-90.186700000000002",0,0,0,0,0,0,0
195,"Narrows (AR)","AR","34.148426999999998","-93.715168000000006",0,0,0,0,0,0,38533
196,"Norfork","AR","36.249099999999999","-92.240099999999998",0,0,0,0,0,0,135669
197,"Blakely Mountain","AR","34.570984000000003","-93.194424999999995",0,0,0,0,0,0,168451
198,"Bull Shoals","AR","36.363500000000002","-92.576300000000003",0,0,0,0,0,0,513677
199,"Dardanelle","AR","35.250300000000003","-93.168599999999998",0,0,0,0,0,0,484586
201,"Thomas Fitzhugh","AR","35.462381999999998","-93.804925999999995",0,0,0,0,0,0,26085
202,"Carl Bailey","AR","35.260102000000003","-91.363426000000004",0,0,0,0,0,0,3132
203,"McClellan (AR)","AR","33.564799999999998","-92.791700000000006",0,0,0,0,0,0,117552.003
204,"Clinton Power Station","IL","40.171900000000001","-88.8339",0,0,0,9071711,0,0,0
207,"St Johns River Power Park","FL","30.430800000000001","-81.550799999999995",0,0,0,0,7144486.045,0,0
210,"Wolf Creek Generating Station","KS","38.239260000000002","-95.689779999999999",0,0,0,8558384,0,0,0
214,"Alta Powerhouse","CA","39.215978999999997","-120.80355",0,0,0,0,0,0,3545
215,"Angels","CA","38.071944000000002","-120.539444",0,0,0,0,0,0,4285
217,"Balch 1","CA","36.909137000000001","-119.087712",0,0,0,0,0,0,44325
218,"Balch 2","CA","36.908906999999999","-119.08755600000001",0,0,0,0,0,0,158988
219,"Belden","CA","40.007444999999997","-121.249438",0,0,0,0,0,0,161634
220,"Bucks Creek","CA","39.910620000000002","-121.327692",0,0,0,0,0,0,70387
221,"Butt Valley","CA","40.175655999999996","-121.190663",0,0,0,0,0,0,88042
222,"Caribou 1","CA","40.085476","-121.148241",0,0,0,0,0,0,71782
223,"Caribou 2","CA","40.085996999999999","-121.149373",0,0,0,0,0,0,289603
225,"Chili Bar","CA","38.771763999999997","-120.813239",0,0,0,0,0,0,1702
227,"Coleman PH","CA","40.404645000000002","-122.121904",0,0,0,0,0,0,35544
229,"Cow Creek","CA","40.570816999999998","-122.02093000000001",0,0,0,0,0,0,4082
231,"Cresta","CA","39.825907000000001","-121.40968700000001",0,0,0,0,0,0,148108
232,"De Sabla","CA","39.869264999999999","-121.63181899999999",0,0,0,0,0,0,43650
233,"Deer Creek PH","CA","39.298070000000003","-120.8443",0,0,0,0,0,0,17756
235,"Drum 1","CA","39.256872999999999","-120.767437",0,0,0,0,0,0,19894
236,"Drum 2","CA","39.257387999999999","-120.76704599999999",0,0,0,0,0,0,170814
237,"Dutch Flat","CA","39.216985000000001","-120.835587",0,0,0,0,0,0,60196
238,"El Dorado","CA","38.793574","-120.619152",0,0,0,0,0,0,44779
239,"Electra","CA","38.330984999999998","-120.669901",0,0,0,0,0,0,220266
240,"Haas","CA","36.927424000000002","-119.02025",0,0,0,0,0,0,138226
241,"Halsey","CA","38.956985000000003","-121.041932",0,0,0,0,0,0,24258
242,"Hamilton Branch","CA","40.268712000000001","-121.089479",0,0,0,0,0,0,4101
243,"Hat Creek 1","CA","40.929296999999998","-121.544462",0,0,0,0,0,0,20956
244,"Hat Creek 2","CA","40.960675000000002","-121.54865700000001",0,0,0,0,0,0,32216
246,"Humboldt Bay","CA","40.741500000000002","-124.2103",0,0,0,0,0,0,346417
248,"Inskip","CA","40.400987999999998","-121.965502",0,0,0,0,0,0,27483
249,"James B Black","CA","40.992294999999999","-121.975182",0,0,0,0,0,0,434190
250,"Kerckhoff","CA","37.092486000000001","-119.552826",0,0,0,0,0,0,0
253,"Kilarc","CA","40.677827000000001","-121.87325300000001",0,0,0,0,0,0,9982
254,"Kings River PH","CA","36.888165999999998","-119.158777",0,0,0,0,0,0,41283
255,"Lime Saddle","CA","39.698754999999998","-121.57096",0,0,0,0,0,0,4223
258,"Merced Falls","CA","37.523009999999999","-120.329905",0,0,0,0,0,0,4334
259,"Dynegy Morro Bay LLC","CA","35.372166999999997","-120.856562",0,0,0,0,0,0,0
260,"Dynegy Moss Landing Power Plant","CA","36.804836999999999","-121.782241",0,0,4152565,0,0,0,0
261,"Murphys","CA","38.147092999999998","-120.44639599999999",0,0,0,0,0,0,11545
262,"Narrows PH","CA","39.236400000000003","-121.27174100000001",0,0,0,0,0,0,25183
264,"Phoenix","CA","38.032102999999999","-120.326537",0,0,0,0,0,0,5091
265,"Pit 1","CA","40.990839999999999","-121.498243",0,0,0,0,0,0,177903
266,"Pit 3","CA","40.997447999999999","-121.74813899999999",0,0,0,0,0,0,214655
267,"Pit 4","CA","40.986361000000002","-121.84944",0,0,0,0,0,0,305937
268,"Pit 5","CA","40.986196999999997","-121.977594",0,0,0,0,0,0,517330
269,"Pit 6","CA","40.922567999999998","-121.992906",0,0,0,0,0,0,278465
270,"Pit 7","CA","40.847462","-121.990798",0,0,0,0,0,0,303928
271,"Pittsburg Power","CA","38.039167999999997","-121.894469",0,0,37947.5,0,37947.5,0,0
272,"Poe","CA","39.722892000000002","-121.469814",0,0,0,0,0,0,312983
274,"Potter Valley","CA","39.361786000000002","-123.127934",0,0,0,0,0,0,11286
275,"Rock Creek","CA","39.905209999999997","-121.345226",0,0,0,0,0,0,236934
276,"San Joaquin 2","CA","37.203232999999997","-119.497508",0,0,0,0,0,0,913
277,"San Joaquin 3","CA","37.253717999999999","-119.519352",0,0,0,0,0,0,1185
279,"Salt Springs","CA","38.497914000000002","-120.21811",0,0,0,0,0,0,106540
280,"South","CA","40.395395999999998","-121.879186",0,0,0,0,0,0,30054
281,"Spaulding 1","CA","39.324612999999999","-120.644807",0,0,0,0,0,0,25046
282,"Spaulding 2","CA","39.324592000000003","-120.645375",0,0,0,0,0,0,1861
283,"Spaulding 3","CA","39.337679000000001","-120.63546700000001",0,0,0,0,0,0,3449
284,"Spring Gap","CA","38.186529999999998","-120.11168000000001",0,0,0,0,0,0,15316
285,"Stanislaus","CA","38.139048000000003","-120.37032499999999",0,0,0,0,0,0,146457
286,"Geysers Unit 5-20","CA","38.777000000000001","-122.745",0,0,0,0,0,0,4591707
287,"Tiger Creek","CA","38.449291000000002","-120.492645",0,0,0,0,0,0,191952
289,"Tule River","CA","36.163075999999997","-118.707104",0,0,0,0,0,0,1656
290,"Volta 1","CA","40.459111","-121.86708",0,0,0,0,0,0,25463
291,"West Point PH","CA","38.420898000000001","-120.549572",0,0,0,0,0,0,52180
292,"Wise","CA","38.889862000000001","-121.098525",0,0,0,0,0,0,40807
293,"A G Wishon","CA","37.151049999999998","-119.504724",0,0,0,0,0,0,6571
294,"Copco 1","CA","41.978914000000003","-122.335317",0,0,0,0,0,0,65390
295,"Copco 2","CA","41.975715999999998","-122.358127",0,0,0,0,0,0,86439
296,"Fall Creek","CA","41.985605","-122.360455",0,0,0,0,0,0,7396
297,"Iron Gate","CA","41.932980999999998","-122.43678",0,0,0,0,0,0,85550
298,"Limestone","TX","31.421900000000001","-96.252499999999998",0,0,0,0,7310014.86,0,4667231.2
299,"Blundell","UT","38.488900000000001","-112.8533",0,0,0,0,0,0,274996
301,"El Cajon","CA","32.7958","-116.9722",0,0,0,0,0,0,977
302,"Encina","CA","33.136099999999999","-117.3364",0,0,0,0,0,0,540007
303,"Kearny","CA","32.834000000000003","-117.13379999999999",0,0,0,0,0,0,23880
305,"Miramar","CA","32.876100000000001","-117.1664",0,0,0,0,0,0,5308
313,"Green Lake","AK","56.986283999999998","-135.12275",0,0,0,0,0,0,70792
314,"Drop 5","CA","32.673096999999999","-115.392026",0,0,0,0,0,0,11793
315,"AES Alamitos LLC","CA","33.768799999999999","-118.1009",0,0,1369722,0,0,0,0
316,"Sepulveda Canyon","CA","34.096899999999998","-118.4795",0,0,0,0,0,0,0
317,"Big Creek 1","CA","37.2042","-119.2396",0,0,0,0,0,0,151124
318,"Big Creek 2","CA","37.200000000000003","-119.3069",0,0,0,0,0,0,140967
319,"Big Creek 3","CA","37.148516999999998","-119.386623",0,0,0,0,0,0,302929
320,"Big Creek 4","CA","37.139000000000003","-119.4898",0,0,0,0,0,0,133078
321,"Big Creek 8","CA","37.209600000000002","-119.3289",0,0,0,0,0,0,105736
322,"Big Creek 2A","CA","37.200062000000003","-119.30681",0,0,0,0,0,0,207249
323,"Bishop Creek 2","CA","37.273581","-118.573339",0,0,0,0,0,0,15118
324,"Bishop Creek 3","CA","37.301962000000003","-118.53195700000001",0,0,0,0,0,0,15001
325,"Bishop Creek 4","CA","37.323034999999997","-118.50171400000001",0,0,0,0,0,0,25145
326,"Bishop Creek 5","CA","37.334400000000002","-118.47969999999999",0,0,0,0,0,0,6091
327,"Bishop Creek 6","CA","37.349899999999998","-118.4628",0,0,0,0,0,0,6753
328,"Borel","CA","35.588068999999997","-118.524804",0,0,0,0,0,0,-209
329,"Coolwater","CA","34.860599999999998","-116.8539",0,0,0,0,0,0,248282
330,"El Segundo Power","CA","33.909804000000001","-118.424172",0,0,180713,0,0,0,0
331,"Etiwanda Generating Station","CA","34.091180000000001","-117.52663",0,0,0,0,212625,0,0
332,"Fontana","CA","34.155161999999997","-117.397119",0,0,0,0,0,0,1916
335,"AES Huntington Beach LLC","CA","33.643900000000002","-117.97920000000001",0,0,912234,0,0,0,0
336,"Kaweah 2","CA","36.461326","-118.87988",0,0,0,0,0,0,4435
337,"Kaweah 1","CA","36.465066","-118.86202299999999",0,0,0,0,0,0,3559
338,"Kaweah 3","CA","36.486058999999997","-118.835645",0,0,0,0,0,0,6761
339,"Kern River 3","CA","35.776184999999998","-118.436233",0,0,0,0,0,0,368
340,"Kern River 1","CA","35.460303000000003","-118.77959",0,0,0,0,0,0,101689
341,"Long Beach Generation LLC","CA","33.764099999999999","-118.2248",0,0,0,0,0,0,20383
342,"Lundy","CA","38.042729000000001","-119.172015",0,0,0,0,0,0,4324
344,"Mammoth Pool","CA","37.220301999999997","-119.33798299999999",0,0,0,0,0,0,217263
345,"Mandalay","CA","34.206699999999998","-119.25109999999999",0,0,145751,0,0,0,954
350,"Ormond Beach","CA","34.129199999999997","-119.16889999999999",0,0,228795,0,0,0,0
353,"Poole","CA","37.944237000000001","-119.2161",0,0,0,0,0,0,21226
354,"Portal","CA","37.257044999999998","-119.158936",0,0,0,0,0,0,22880
356,"AES Redondo Beach LLC","CA","33.8504","-118.395",0,0,249851,0,0,0,0
357,"Rush Creek","CA","37.766953999999998","-119.123284",0,0,0,0,0,0,22177
358,"Mountainview Generating Station","CA","34.081800000000001","-117.2418",0,0,0,0,6172663.1,0,0
361,"Santa Ana 1","CA","34.145220000000002","-117.058481",0,0,0,0,0,0,513
363,"Santa Ana 3","CA","34.107244999999999","-117.099091",0,0,0,0,0,0,1777
365,"Lower Tule River","CA","36.135680000000001","-118.78886799999999",0,0,0,0,0,0,6693
371,"Columbia Generating Station","WA","46.4711","-119.3339",0,0,0,0,9497321,0,0
376,"Pardee","CA","38.256900000000002","-120.8507",0,0,0,0,0,0,25634
377,"Grayson","CA","34.1556","-118.2782",0,0,0,0,0,0,159274
378,"Prairie River","MN","47.287205999999998","-93.498266000000001",0,0,0,0,0,0,2524
380,"Dion R Holm","CA","37.896648999999996","-119.9675",0,0,0,0,0,0,428782
381,"Moccasin","CA","37.809387999999998","-120.299254",0,0,0,0,0,0,287852
382,"R C Kirkwood","CA","37.877667000000002","-119.953233",0,0,0,0,0,0,312936
384,"Joliet 29","IL","41.494636","-88.123827000000006",0,0,0,0,0,0,5061425.962
385,"Drop 2 (CA)","CA","32.705435000000001","-115.030975",0,0,0,0,0,0,45567
386,"Drop 3 (CA)","CA","32.705427999999998","-115.126103",0,0,0,0,0,0,41178
387,"Drop 4","CA","32.705340999999997","-115.219067",0,0,0,0,0,0,96166
388,"Pilot Knob","CA","32.736642000000003","-114.713858",0,0,0,0,0,0,22206
389,"El Centro","CA","32.802222","-115.54",0,0,0,0,1165974,0,0
390,"Solomon Gulch","AK","61.082799999999999","-146.30330000000001",0,0,0,0,0,0,54955
391,"Big Pine Creek","CA","37.142795","-118.32407499999999",0,0,0,0,0,0,9526
392,"Castaic","CA","34.587237000000002","-118.656638",0,0,0,0,0,0,183638
393,"Control Gorge","CA","37.437921000000003","-118.556988",0,0,0,0,0,0,2831
394,"Cottonwood","CA","36.443421000000001","-118.04389",0,0,0,0,0,0,1563
396,"Foothill","CA","34.318247999999997","-118.494449",0,0,0,0,0,0,19917
397,"Franklin (CA)","CA","34.103931000000003","-118.413377",0,0,0,0,0,0,-4
398,"Haiwee","CA","36.109721999999998","-117.956667",0,0,0,0,0,0,3536
399,"Harbor","CA","33.785600000000002","-118.26439999999999",0,0,0,0,0,0,106510
400,"Haynes","CA","33.764741000000001","-118.09913",0,0,2628045,0,0,0,313039
401,"Middle Gorge","CA","37.51","-118.56916699999999",0,0,0,0,0,0,22082
402,"Pleasant Valley Hydro","CA","37.414160000000003","-118.523889",0,0,0,0,0,0,2018
403,"San Fernando","CA","34.260527000000003","-118.385531",0,0,0,0,0,0,-28
404,"Scattergood","CA","33.918151000000002","-118.427648",0,0,1133912.01,0,0,0,0
406,"Tok","AK","63.3367","-142.98560000000001",0,0,0,0,0,0,8902
407,"Upper Gorge","CA","37.546036000000001","-118.590001",0,0,0,0,0,0,27323
408,"Valley (CA)","CA","34.244990999999999","-118.391327",0,0,0,0,1560975,0,5577
409,"Exchequer","CA","37.584344999999999","-120.26859",0,0,0,0,0,0,77225
410,"McSwain","CA","37.522064999999998","-120.31009",0,0,0,0,0,0,11144
412,"Chicago Park","CA","39.177903000000001","-120.890856",0,0,0,0,0,0,59831
413,"Dutch Flat 2","CA","39.218400000000003","-120.8352",0,0,0,0,0,0,19912
414,"Beardsley","CA","38.202568999999997","-120.076983",0,0,0,0,0,0,15182
415,"Donnells","CA","38.246656000000002","-120.03407199999999",0,0,0,0,0,0,134635
416,"Tulloch","CA","37.876111000000002","-120.605",0,0,0,0,0,0,91491
417,"Forbestown","CA","39.551012","-121.278784",0,0,0,0,0,0,58149
418,"Kelly Ridge","CA","39.531784000000002","-121.491247",0,0,0,0,0,0,33070
419,"Woodleaf","CA","39.553811000000003","-121.204077",0,0,0,0,0,0,89001
420,"Broadway (CA)","CA","34.125399999999999","-118.148",0,0,0,0,0,0,64791
421,"Craig (AK)","AK","55.476399999999998","-133.14830000000001",0,0,0,0,0,0,306
422,"Glenarm","CA","34.125999999999998","-118.1494",0,0,0,0,0,0,33607
423,"Hydaburg","AK","55.208100000000002","-132.82669999999999",0,0,0,0,0,0,13
424,"French Meadows","CA","39.077970999999998","-120.406069",0,0,0,0,0,0,21280
425,"Middle Fork","CA","39.024800999999997","-120.596383",0,0,0,0,0,0,270448
426,"Oxbow (CA)","CA","39.003371999999999","-120.746651",0,0,0,0,0,0,14509
427,"Ralston","CA","39.000999","-120.725053",0,0,0,0,0,0,200529
428,"Parker","CA","37.477837999999998","-120.444492",0,0,0,0,0,0,3047
430,"Camino","CA","38.828809999999997","-120.53708899999999",0,0,0,0,0,0,153928
431,"Jaybird","CA","38.834049999999998","-120.53176000000001",0,0,0,0,0,0,242172
432,"Loon Lake","CA","38.982697000000002","-120.32450300000001",0,0,0,0,0,0,55822
433,"Robbs Peak","CA","38.896510999999997","-120.378292",0,0,0,0,0,0,24230
435,"White Rock/Slab Creek","CA","38.765335999999998","-120.78736600000001",0,0,0,0,0,0,216343
436,"Devil Canyon","CA","34.205599999999997","-117.3344",0,0,0,0,0,0,216054
437,"Edward C Hyatt","CA","39.542985000000002","-121.492188",0,0,0,0,0,0,652588
438,"Thermalito","CA","39.514893000000001","-121.630077",0,0,0,0,0,0,0
439,"Don Pedro","CA","37.695993999999999","-120.420152",0,0,0,0,0,0,155818
440,"La Grange","CA","37.669699999999999","-120.4436",0,0,0,0,0,0,7657
441,"Folsom","CA","38.70675","-121.15844300000001",0,0,0,0,0,0,185147
442,"Judge F Carr","CA","40.646934000000002","-122.62697300000001",0,0,0,0,0,0,338338
443,"Keswick","CA","40.611857999999998","-122.44644099999999",0,0,0,0,0,0,284273
444,"Nimbus","CA","38.637349999999998","-121.220198",0,0,0,0,0,0,26149
445,"Shasta","CA","40.717455000000001","-122.422274",0,0,0,0,0,0,1012933
446,"ONeill","CA","37.098671000000003","-121.047718",0,0,0,0,0,0,-5735
447,"Parker Dam","CA","34.295333999999997","-114.14022199999999",0,0,0,0,0,0,448589
448,"W R Gianelli","CA","37.069200000000002","-121.0772",0,0,0,0,0,0,-142409
450,"Spring Creek","CA","40.628115000000001","-122.46750900000001",0,0,0,0,0,0,283446
451,"Trinity","CA","40.797296000000003","-122.762553",0,0,0,0,0,0,279059
454,"Colgate","CA","39.330832999999998","-121.191666",0,0,0,0,0,0,538803
455,"Narrows 2","CA","39.238996","-121.270409",0,0,0,0,0,0,94716
457,"Bear Valley","CA","33.166111000000001","-117.016667",0,0,0,0,0,0,562
460,"Pueblo","CO","38.2667","-104.6144",0,0,0,0,0,0,-316
464,"Alamosa","CO","37.459400000000002","-105.8947",0,0,0,0,0,0,1866
465,"Arapahoe","CO","39.67","-105.00279999999999",0,0,0,0,0,0,0
466,"Boulder Canyon Hydro","CO","40.004725000000001","-105.33249499999999",0,0,0,0,0,0,19615
467,"Cabin Creek","CO","39.655099999999997","-105.7088",0,0,0,0,0,0,-159359
469,"Cherokee","CO","39.807274999999997","-104.96454799999999",0,0,0,0,0,0,3075374.027
470,"Comanche (CO)","CO","38.208100000000002","-104.57470000000001",0,0,0,0,0,0,8289783.03
471,"Fruita","CO","39.136400000000002","-108.7347",0,0,0,0,0,0,129
472,"Georgetown Hydro","CO","39.691899999999997","-105.6978",0,0,0,0,0,0,6165
473,"Grand Valley Project Power Plant","CO","39.101666999999999","-108.345556",0,0,0,0,0,0,13448
474,"Salida","CO","38.534190000000002","-106.18200299999999",0,0,0,0,0,0,2152
476,"Shoshone (CO)","CO","39.570129999999999","-107.226876",0,0,0,0,0,0,66015
477,"Valmont","CO","40.019500000000001","-105.202",0,0,0,1047943.048,0,0,1048
478,"Zuni","CO","39.737347999999997","-105.016991",0,0,0,0,0,0,-980
479,"Temescal","CA","33.834299999999999","-117.4971",0,0,0,0,0,0,16144
480,"Corona","CA","33.85895","-117.61060000000001",0,0,0,0,0,0,14259
481,"Perris","CA","33.836100000000002","-117.1831",0,0,0,0,0,0,0
482,"Rio Hondo","CA","34.004722000000001","-118.09917",0,0,0,0,0,0,1003
483,"Coyote Creek","CA","33.924930000000003","-117.95517",0,0,0,0,0,0,7784
484,"Red Mountain","CA","33.394399999999997","-117.1889",0,0,0,0,0,0,11651
487,"Valley View","CA","33.900100000000002","-117.82905",0,0,0,0,0,0,20471
489,"Upper Dawson","CA","37.650799999999997","-120.4706",0,0,0,0,0,0,6860
491,"Center","CO","37.755000000000003","-106.1092",0,0,0,0,0,0,0
492,"Martin Drake","CO","38.824444","-104.833333",0,0,0,0,1169606.02,0,0
493,"George Birdsall","CO","38.881388999999999","-104.81694400000001",0,0,0,0,0,0,8037
494,"Manitou Springs","CO","38.855556","-104.93305599999999",0,0,0,0,0,0,20354
495,"Ruxton Park","CO","38.841354000000003","-104.97380200000001",0,0,0,0,0,0,1076
496,"Delta (CO)","CO","38.731400000000001","-108.07080000000001",0,0,0,0,0,0,32
502,"Holly","CO","38.055","-102.2004",0,0,0,0,0,0,5
504,"Julesburg","CO","40.9681","-102.2492",0,0,0,0,0,0,0
505,"Boysen","WY","43.417872000000003","-108.17754499999999",0,0,0,0,0,0,69504
506,"La Junta","CO","37.984400000000001","-103.5436",0,0,0,0,0,0,-1073
507,"Las Animas","CO","38.059699999999999","-103.2206",0,0,0,0,0,0,0
508,"Lamar Plant","CO","38.033327","-102.537915",0,0,0,0,0,0,10359
510,"Sonoma California Geothermal","CA","38.790300000000002","-122.7559",0,0,0,0,0,0,318272
511,"Trinidad (CO)","CO","37.178978999999998","-104.487492",0,0,0,0,0,0,24
512,"Blue Mesa","CO","38.453190999999997","-107.33748300000001",0,0,0,0,0,0,221259
513,"Estes","CO","40.376770999999998","-105.509665",0,0,0,0,0,0,95294
514,"Morrow Point","CO","38.451752999999997","-107.539299",0,0,0,0,0,0,295791
515,"Big Thompson","CO","40.421030999999999","-105.223804",0,0,0,0,0,0,2006
516,"Green Mountain","CO","39.878805","-106.332725",0,0,0,0,0,0,93802
517,"Marys Lake","CO","40.344079999999998","-105.534308",0,0,0,0,0,0,35205
518,"Flatiron","CO","40.364995999999998","-105.23603199999999",0,0,0,0,0,0,222616
519,"Pole Hill","CO","40.365056000000003","-105.325074",0,0,0,0,0,0,191968
520,"Lower Molina","CO","39.193660000000001","-108.044088",0,0,0,0,0,0,15693
521,"Upper Molina","CO","39.143808","-108.004777",0,0,0,0,0,0,24430
525,"Hayden","CO","40.485599999999998","-107.185",0,0,0,0,0,0,3156779.958
527,"Nucla","CO","38.238300000000002","-108.5069",0,0,0,0,0,0,417583.997
531,"Camp Far West","CA","39.048802000000002","-121.31696599999999",0,0,0,0,0,0,5767
533,"McWilliams","AL","31.400255000000001","-86.476449000000002",0,0,0,0,3193280,0,59.013
534,"Jones Fork","CA","38.850282999999997","-120.381883",0,0,0,0,0,0,10648
535,"McClellan (CA)","CA","38.652731000000003","-121.39333600000001",0,0,0,0,0,0,3722
537,"Camanche","CA","38.226799999999997","-121.0245",0,0,0,0,0,0,4919
539,"Rocky River (CT)","CT","41.582599999999999","-73.434899999999999",0,0,0,0,0,0,6782
540,"Branford","CT","41.292499999999997","-72.794200000000004",0,0,0,0,0,0,654
541,"Bulls Bridge","CT","41.659045999999996","-73.491984000000002",0,0,0,0,0,0,37929
542,"Cos Cob","CT","41.0289","-73.5989",0,0,0,0,0,0,4743
544,"Devon Station","CT","41.209797000000002","-73.108975999999998",0,0,0,0,0,0,6152
546,"Montville Station","CT","41.428100000000001","-72.101900000000001",0,0,48631,0,0,0,476
547,"Northfield Mountain","MA","42.610683000000002","-72.471643",0,0,0,0,0,0,-309676
550,"Kettle Falls Generating Station","WA","48.620336000000002","-118.111059",0,0,0,0,0,0,263442.999
551,"Scotland Dam","CT","41.665100000000002","-72.122100000000003",0,0,0,0,0,0,6366
552,"Shepaug","CT","41.448419999999999","-73.295321000000001",0,0,0,0,0,0,145192
553,"Stevenson","CT","41.383299999999998","-73.171400000000006",0,0,0,0,0,0,93171
554,"Taftville","CT","41.572499999999998","-72.0458",0,0,0,0,0,0,5042
557,"Tunnel","CT","41.555425","-72.041829000000007",0,0,0,0,0,0,7727
559,"Rainbow (CT)","CT","41.915312","-72.693616000000006",0,0,0,0,0,0,32155.2
560,"Falls Village","CT","41.957272000000003","-73.369297000000003",0,0,0,0,0,0,45744
561,"Franklin Drive","CT","41.798943000000001","-73.116266999999993",0,0,0,0,0,0,716
562,"Middletown","CT","41.554943999999999","-72.579075000000003",0,0,117268.5025,0,117268.5025,0,398
563,"South Meadow","CT","41.749499999999998","-72.6524",0,0,0,0,0,0,4121
564,"Stanton Energy Center","FL","28.482199999999999","-81.1678",0,0,0,0,6073566.937,0,1671.974
565,"Torrington Terminal","CT","41.776108999999998","-73.120885999999999",0,0,0,0,0,0,607
566,"Millstone","CT","41.310699999999997","-72.167699999999996",0,0,15840619,0,0,0,0
568,"Bridgeport Station","CT","41.1706","-73.184399999999997",0,0,828626.293,0,0,0,4262.71
579,"Central Hudson High Falls","NY","41.828814000000001","-74.131877000000003",0,0,0,0,0,0,0
581,"North Main Street","CT","41.526789999999998","-72.064935000000006",0,0,0,0,0,0,575
583,"Tenth Street","CT","41.538955000000001","-72.050935999999993",0,0,0,0,0,0,2144.34
584,"Navajo Dam","NM","36.806100000000001","-107.6131",0,0,0,0,0,0,60678
585,"Drop 1","CA","32.711610999999998","-114.942666",0,0,0,0,0,0,16396
586,"East Highline","CA","32.699451000000003","-115.28245",0,0,0,0,0,0,3368
589,"J C McNeil","VT","44.491700000000002","-73.208055999999999",0,0,0,0,0,0,287186
591,"Christiana","DE","39.730200000000004","-75.537099999999995",0,0,0,0,0,0,1223
592,"Delaware City 10","DE","39.600408000000002","-75.626811000000004",0,0,0,0,0,0,963
593,"Edge Moor","DE","39.738860000000003","-75.503839999999997",0,0,814105.87,0,0,0,38204.13
594,"Indian River Generating Station","DE","38.585700000000003","-75.234099999999998",0,0,0,0,871739.003,0,1321
597,"West Station (DE)","DE","39.728299999999997","-75.628900000000002",0,0,0,0,0,0,60
599,"McKee Run","DE","39.176222000000003","-75.546627999999998",0,0,0,0,33479,0,0
602,"Brandon Shores","MD","39.18","-76.538899999999998",0,0,0,0,4758982.031,0,0
607,"Fredonia","WA","48.455800000000004","-122.4358",0,0,0,0,0,0,67546
609,"Cape Canaveral","FL","28.469799999999999","-80.764399999999995",0,0,6835515.5,0,0,0,9839.502
612,"Fort Myers","FL","26.6967","-81.783100000000005",0,0,8620066,0,0,0,223667.997
613,"Lauderdale","FL","26.0686","-80.198400000000007",0,0,0,0,0,0,4559518.077
617,"Port Everglades","FL","26.085599999999999","-80.125299999999996",0,0,0,0,0,0,8545
619,"Riviera","FL","26.7653","-80.052499999999995",0,0,4759518.5,0,0,0,67414.487
620,"Sanford","FL","28.841899999999999","-81.325599999999994",0,0,0,9206252,0,0,0
621,"Turkey Point","FL","25.435600000000001","-80.330799999999996",0,0,0,12257785.997,6105523.5,0,7986.486
622,"South Fork Tolt","WA","47.699167000000003","-121.783333",0,0,0,0,0,0,63313
624,"Avon Park","FL","27.579443999999999","-81.492778000000001",0,0,0,0,0,0,2500
625,"Upper Mechanicville","NY","42.912599999999998","-73.680499999999995",0,0,0,0,0,0,85688
626,"Oak Flat","CA","40.075310000000002","-121.16143",0,0,0,0,0,0,5795
627,"Bayboro","FL","27.758056","-82.635278",0,0,0,0,0,0,6281
628,"Crystal River","FL","28.965599999999998","-82.697699999999998",0,0,5880137.481,0,5880137.481,0,0
629,"G E Turner","FL","28.869577","-81.273956999999996",0,0,0,0,0,0,8843
630,"Higgins","FL","28.003261999999999","-82.661507",0,0,0,0,0,0,6034
632,"Newcastle","CA","38.835182000000003","-121.09298200000001",0,0,0,0,0,0,7369
634,"P L Bartow","FL","27.859535000000001","-82.601759000000001",0,0,6797759.2,0,0,0,9423.812
637,"Rio Pinar","FL","28.541515","-81.254067000000006",0,0,0,0,0,0,84
638,"Suwannee River","FL","30.376389","-83.180555999999996",0,0,497448,0,0,0,27515
641,"Crist","FL","30.566099999999999","-87.224400000000003",0,0,1734642.016,0,1734642.016,0,0
642,"Scholz","FL","30.6692","-84.886899999999997",0,0,0,0,0,0,31637
643,"Lansing Smith","FL","30.268599999999999","-85.700299999999999",0,0,822800.778,0,3557564,0,125922.22
645,"Big Bend","FL","27.7944","-82.403599999999997",0,0,10116411.732,0,0,0,10738
649,"Vogtle","GA","33.142699999999998","-81.762500000000003",0,0,0,0,0,0,18060190
663,"Deerhaven Generating Station","FL","29.7592","-82.387799999999999",0,0,0,0,878662.407,0,8802.593
664,"John R Kelly","FL","29.646100000000001","-82.320800000000006",0,0,0,0,0,0,242833
665,"G W Ivey","FL","25.4756","-80.47",0,0,0,0,0,0,14227
666,"J D Kennedy","FL","30.364818","-81.625967000000003",0,0,0,0,0,0,37302
667,"Northside Generating Station","FL","30.417200000000001","-81.552499999999995",0,0,3700019.79,0,0,0,9188.124
673,"Tom G Smith","FL","26.612767000000002","-80.067700000000002",0,0,0,0,0,0,13649
675,"Larsen Memorial","FL","28.079699999999999","-81.922799999999995",0,0,0,0,0,0,5040
676,"C D McIntosh Jr","FL","28.080100000000002","-81.922899999999998",0,0,260966.163,0,1940368.163,0,246.674
678,"W K Sanders","VT","44.625281999999999","-72.530859000000007",0,0,0,0,0,0,804
682,"Kerckhoff 2","CA","37.071846000000001","-119.558008",0,0,0,0,0,0,140573
683,"Indian River Plant","FL","28.493231999999999","-80.780124000000001",0,0,0,0,0,0,13942
688,"Arvah B Hopkins","FL","30.452200000000001","-84.4",0,0,0,0,150000,0,1385992
689,"S O Purdom","FL","30.162303999999999","-84.200672999999995",0,0,0,0,1255733,0,-40
690,"J Woodruff","FL","30.708570999999999","-84.863868999999994",0,0,0,0,0,0,191509
692,"Medicine Bow","WY","41.835278000000002","-106.242778",0,0,0,0,0,0,10317
693,"Vero Beach Municipal Power Plant","FL","27.633382000000001","-80.377550999999997",0,0,15819,0,2207,0,0
696,"Marathon Generating Plant","FL","24.710833000000001","-81.092699999999994",0,0,0,0,0,0,-280
698,"Trenton North","MO","40.078600000000002","-93.635000000000005",0,0,0,0,0,0,73
702,"Bartletts Ferry","AL","32.661976000000003","-85.091551999999993",0,0,0,0,0,0,359931
703,"Bowen","GA","34.125599999999999","-84.922200000000004",0,0,0,0,15975305.165,0,0
704,"Burton Dam","GA","34.793900000000001","-83.540599999999998",0,0,0,0,0,0,17313
706,"Flint River","GA","31.602799999999998","-84.137600000000006",0,0,0,0,0,0,29223
707,"Goat Rock","AL","32.609650000000002","-85.080500000000001",0,0,0,0,0,0,138630
708,"Hammond","GA","34.252800000000001","-85.345600000000005",0,0,1130525.98,0,0,0,0
709,"Harllee Branch","GA","33.195","-83.298299999999998",0,0,2537860.048,0,0,0,0
710,"Jack McDonough","GA","33.823900000000002","-84.475800000000007",0,0,0,0,17021960,0,-303
711,"Langdale","AL","32.813836000000002","-85.167786000000007",0,0,0,0,0,0,0
712,"Lloyd Shoals","GA","33.320773000000003","-83.841921999999997",0,0,0,0,0,0,65245
714,"Toadtown","CA","39.893490999999997","-121.59338",0,0,0,0,0,0,1542
715,"McManus","GA","31.213645","-81.546165000000002",0,0,0,0,0,0,7004
717,"Morgan Falls","GA","33.968400000000003","-84.3827",0,0,0,0,0,0,36850
718,"Nacoochee","GA","34.755268999999998","-83.501073000000005",0,0,0,0,0,0,10614
719,"North Highlands","GA","32.498790999999997","-84.995585000000005",0,0,0,0,0,0,113122
720,"Oliver Dam","GA","32.516300000000001","-84.996899999999997",0,0,0,0,0,0,197805
722,"Sinclair Dam","GA","33.140300000000003","-83.202799999999996",0,0,0,0,0,0,104753
723,"Tallulah Falls","GA","34.731332000000002","-83.375474999999994",0,0,0,0,0,0,117685
724,"Terrora","GA","34.750399999999999","-83.406300000000002",0,0,0,0,0,0,34879
725,"Tugalo","GA","34.713299999999997","-83.351900000000001",0,0,0,0,0,0,87878
727,"Mitchell (GA)","GA","31.444728000000001","-84.134696000000005",0,0,71770,0,0,0,1340
728,"Yates","GA","33.462200000000003","-84.898600000000002",0,0,0,0,716054.005,0,0
729,"Yonah","GA","34.681477000000001","-83.342641999999998",0,0,0,0,0,0,40915
732,"Boulevard","GA","32.0411","-81.144999999999996",0,0,0,0,0,0,-33
733,"Kraft","GA","32.148600000000002","-81.145799999999994",0,0,591877.001,0,0,0,29
736,"Stevens Creek","GA","33.562643999999999","-82.051242000000002",0,0,0,0,0,0,80471
745,"Etiwanda","CA","34.103450000000002","-117.5257",0,0,0,0,0,0,0
751,"Moccasin Low Head Hydro Project","CA","37.816446999999997","-120.312033",0,0,0,0,0,0,0
752,"Lake Blackshear Project","GA","31.847697","-83.941996000000003",0,0,0,0,0,0,43162
753,"Crisp Plant","GA","31.844708000000001","-83.940734000000006",0,0,0,0,0,0,532
754,"Hartwell Lake","GA","34.356400000000001","-82.821899999999999",0,0,0,0,0,0,451360
757,"Blue Ridge","GA","34.883889000000003","-84.282222000000004",0,0,0,0,0,0,31844
758,"Nottely","GA","34.959153000000001","-84.087649999999996",0,0,0,0,0,0,27442
759,"Buford","GA","34.162278999999998","-84.077366999999995",0,0,0,0,0,0,180168
760,"Allatoona","GA","34.163699999999999","-84.728200000000001",0,0,0,0,0,0,67673
761,"Walter F George","GA","34.614229999999999","-84.674763999999996",0,0,0,0,0,0,408703
762,"Ponca","OK","36.719790000000003","-97.085757999999998",0,0,0,0,0,0,0
764,"Honolulu","HI","21.306799999999999","-157.8819",0,0,0,0,0,0,1594
765,"Kahe","HI","21.356394999999999","-158.12885299999999",0,0,2643695,0,0,0,0
766,"Waiau","HI","21.388997","-157.96151800000001",0,0,1031646,0,0,0,13278
768,"Waimea","HI","19.630600000000001","-155.98169999999999",0,0,0,0,0,0,3021
769,"Kanoelehua","HI","19.705200000000001","-155.0625",0,0,0,0,0,0,1164
771,"Puueo","HI","19.726400000000002","-155.0908",0,0,0,0,0,0,16746
772,"W H Hill","HI","19.7041","-155.0607",0,0,0,0,0,0,170674
774,"Waiau Hydro","HI","19.720300000000002","-155.1189",0,0,0,0,0,0,6795
776,"Sly Creek","CA","39.580413","-121.119479",0,0,0,0,0,0,13202
785,"Kingsley","NE","41.211399999999998","-101.6681",0,0,0,0,0,0,39257
788,"East Barnet","VT","44.326335","-72.035893999999999",0,0,0,0,0,0,5741
789,"Orca","AK","60.555","-145.75309999999999",0,0,0,0,0,0,7570
790,"Gem State","ID","43.420220999999998","-112.10185199999999",0,0,0,0,0,0,123525
791,"Canyon","TX","29.870560000000001","-98.194732999999999",0,0,0,0,0,0,0
792,"Palaau Power","HI","21.106000000000002","-157.06469999999999",0,0,0,0,0,0,31830
794,"Lewisville","TX","33.068472999999997","-96.963806000000005",0,0,0,0,0,0,0
805,"Charles E Monty","ME","44.099460999999998","-70.220850999999996",0,0,0,0,0,0,152599
808,"Jarvis (Hinckley)","NY","43.312100000000001","-75.108999999999995",0,0,0,0,0,0,26453
809,"American Falls","ID","42.777799999999999","-112.8764",0,0,0,0,0,0,264207
810,"Bliss","ID","42.913786000000002","-115.070986",0,0,0,0,0,0,301557
811,"Brownlee","ID","44.8367","-116.89749999999999",0,0,0,0,0,0,1917445
812,"C J Strike","ID","42.944868999999997","-115.977858",0,0,0,0,0,0,366278
813,"Cascade Dam","ID","44.525599999999997","-116.0483",0,0,0,0,0,0,43078
814,"Clear Lake","ID","42.667009999999998","-114.78012",0,0,0,0,0,0,16963
815,"Lower Malad","ID","42.865783","-114.906172",0,0,0,0,0,0,39714
816,"Lower Salmon","ID","42.841608000000001","-114.903611",0,0,0,0,0,0,197065
817,"Salmon Diesel","ID","45.183368000000002","-113.885307",0,0,0,0,0,0,1
818,"Shoshone Falls","ID","42.597499999999997","-114.4033",0,0,0,0,0,0,42929
819,"Swan Falls","ID","43.243499999999997","-116.37909999999999",0,0,0,0,0,0,110848
820,"Thousand Springs","ID","42.740541999999998","-114.83672199999999",0,0,0,0,0,0,55450
821,"Twin Falls (ID)","ID","42.589199999999998","-114.3553",0,0,0,0,0,0,59763
822,"Upper Salmon A","ID","42.767422000000003","-114.92469199999999",0,0,0,0,0,0,100252
823,"Upper Malad","ID","42.864266999999998","-114.885542",0,0,0,0,0,0,55588
825,"Ashton","ID","44.078629999999997","-111.497326",0,0,0,0,0,0,32826
827,"Grace","ID","42.536749999999998","-111.79396699999999",0,0,0,0,0,0,56069
829,"Oneida","ID","42.267774000000003","-111.748531",0,0,0,0,0,0,21691
831,"Soda","ID","42.644550000000002","-111.69668900000001",0,0,0,0,0,0,14510
833,"Cabinet Gorge","ID","48.084443999999998","-116.053056",0,0,0,0,0,0,1194480
835,"Post Falls","ID","47.703333000000001","-116.953889",0,0,0,0,0,0,83872
839,"Scott Flat","CA","39.272108000000003","-120.932508",0,0,0,0,0,0,2885
840,"Dworshak","ID","46.514299999999999","-116.29770000000001",0,0,0,0,0,0,1744669
841,"City Power Plant","ID","43.491397999999997","-112.04541",0,0,0,0,0,0,42551
843,"Lower No 2","ID","43.468398000000001","-112.062602",0,0,0,0,0,0,0
844,"Upper Power Plant","ID","43.552695","-112.05095300000001",0,0,0,0,0,0,45755
846,"Combie South","CA","39.009599999999999","-121.0591",0,0,0,0,0,0,2158
850,"Palisades Dam","ID","43.334848999999998","-111.205752",0,0,0,0,0,0,513643
851,"Albeni Falls","ID","48.180244999999999","-116.99858999999999",0,0,0,0,0,0,160597
856,"E D Edwards","IL","40.595799999999997","-89.6631",0,0,3709467.5,0,0,0,4243.499
861,"Coffeen","IL","39.058599999999998","-89.403099999999995",0,0,0,0,0,0,5250486.032
862,"Grand Tower Energy Center LLC","IL","37.657699999999998","-89.511161000000001",0,0,0,0,0,0,84335
869,"Dresden Generating Station","IL","41.39","-88.27",0,0,0,0,0,0,15128940
874,"Joliet 9","IL","41.493099999999998","-88.115300000000005",0,0,1126329.022,0,0,0,0
876,"Kincaid Generation LLC","IL","39.590555999999999","-89.496388999999994",0,0,0,0,0,0,6195907.037
879,"Powerton","IL","40.540799999999997","-89.678600000000003",0,0,0,8511424.034,0,0,0
880,"Quad Cities Generating Station","IL","41.726111000000003","-90.310277999999997",0,0,0,0,0,0,15386504
883,"Waukegan","IL","42.383299999999998","-87.813299999999998",0,0,2785108.03,0,0,0,1912
884,"Will County","IL","41.633400000000002","-88.062899999999999",0,0,0,0,0,0,4072413.993
886,"Fisk Street","IL","41.8508","-87.653300000000002",0,0,0,0,0,0,1011
887,"Joppa Steam","IL","37.209400000000002","-88.858889000000005",0,0,7171321.981,0,0,0,0
889,"Baldwin Energy Complex","IL","38.204999999999998","-89.854399999999998",0,0,0,11701587.567,0,0,0
891,"Havana","IL","40.279699999999998","-90.08",0,0,0,0,2517841.5,0,4768.543
892,"Hennepin Power Station","IL","41.302799999999998","-89.314999999999998",0,0,1686603.039,0,0,0,0
898,"Wood River","IL","38.863900000000001","-90.134699999999995",0,0,3138835.99,0,0,0,0
899,"Moline","IL","41.509959000000002","-90.534020999999996",0,0,0,0,0,0,1936
902,"Bottle Rock Power","CA","38.834800000000001","-122.7677",0,0,0,0,0,0,69072
903,"Rockton","IL","42.451099999999997","-89.075599999999994",0,0,0,0,0,0,6210
905,"Alamo","CA","34.815800000000003","-118.6867",0,0,0,0,0,0,19265
913,"Venice","IL","38.664200000000001","-90.176400000000001",0,0,0,0,0,0,33921
917,"Quincy Chute","WA","46.982514000000002","-119.25776399999999",0,0,0,0,0,0,32798
925,"Hydro Plant No 3","UT","39.205623000000003","-111.33438099999999",0,0,0,0,0,0,2750
934,"Breese","IL","38.607455999999999","-89.524513999999996",0,0,0,0,0,0,208
935,"Bushnell","IL","40.548299999999998","-90.540800000000004",0,0,0,0,0,0,501
936,"Carlyle","IL","38.610599999999998","-89.3583",0,0,0,0,0,0,12.74
937,"Carmi","IL","38.096699999999998","-88.1631",0,0,0,0,0,0,214
940,"Fairfield","IL","38.379717999999997","-88.366860000000003",0,0,0,0,0,0,63
941,"Farmer City","IL","40.246110000000002","-88.638761000000002",0,0,0,0,0,0,49
943,"Freeburg","IL","38.425556","-89.914444000000003",0,0,0,0,0,0,41
944,"Geneseo","IL","41.451493999999997","-90.148546999999994",0,0,0,0,0,0,7604
946,"Highland","IL","38.7333","-89.6875",0,0,0,0,0,0,269
948,"McLeansboro","IL","38.092500000000001","-88.545299999999997",0,0,0,0,0,0,17
949,"Marshall (IL)","IL","39.392138000000003","-87.685130000000001",0,0,0,0,0,0,237
955,"Peru (IL)","IL","41.323700000000002","-89.112300000000005",0,0,0,0,0,0,35730
956,"C H Corn Hydroelectric Facility","FL","30.388517","-84.646624000000003",0,0,0,0,0,0,19879
957,"Princeton (IL)","IL","41.3767","-89.381699999999995",0,0,0,0,0,0,440
958,"Rantoul","IL","40.312221999999998","-88.159443999999993",0,0,0,0,0,0,285
959,"Red Bud","IL","38.206400000000002","-89.993099999999998",0,0,0,0,0,0,183
960,"North Ninth Street","IL","41.909300000000002","-89.049800000000005",0,0,0,0,0,0,1537
961,"South Main Street","IL","41.909199999999998","-89.050399999999996",0,0,0,0,0,0,122
963,"Dallman","IL","39.754803000000003","-89.602389000000002",0,0,0,1173360.4945,1173360.4945,0,0
964,"Lakeside","IL","39.757326999999997","-89.600511999999995",0,0,0,0,0,0,21
965,"Reynolds","IL","39.806868000000001","-89.641653000000005",0,0,0,0,0,0,78
969,"Sullivan (IL)","IL","39.596666999999997","-88.611943999999994",0,0,0,0,0,0,306
971,"Waterloo","IL","38.334786000000001","-90.158939000000004",0,0,0,0,0,0,766
972,"Winnetka","IL","42.115589","-87.731025000000002",0,0,0,0,0,0,2502
976,"Marion","IL","37.619746999999997","-88.953113999999999",0,0,0,1714574.046,0,0,12148
983,"Clifty Creek","IN","38.7378","-85.420599999999993",0,0,0,0,0,0,6062462.992
986,"Elkhart","IN","41.692799999999998","-85.965000000000003",0,0,0,0,0,0,15704
987,"Last Chance","ID","42.603349000000001","-111.705304",0,0,0,0,0,0,3094
988,"Tanners Creek","IN","39.081400000000002","-84.859399999999994",0,0,1419585.969,0,0,0,1183054
989,"Twin Branch","IN","41.664999999999999","-86.132199999999997",0,0,0,0,0,0,29852
990,"Harding Street","IN","39.711319000000003","-86.196866999999997",0,0,1879309,0,1879309,0,89279
991,"Eagle Valley (IN)","IN","39.485169999999997","-86.418300000000002",0,0,744963.003,0,0,0,97
992,"CC Perry K","IN","39.763100000000001","-86.166700000000006",0,0,0,0,0,0,8230.73
994,"AES Petersburg","IN","38.528100000000002","-87.252499999999998",0,0,5633115.6855,0,5633115.6855,0,114
995,"Bailly","IN","41.645000000000003","-87.122500000000002",0,0,2161416.993,0,0,0,744
997,"Michigan City","IN","41.720799999999997","-86.908600000000007",0,0,0,0,2738999.003,0,0
998,"Norway (IN)","IN","40.780299999999997","-86.76",0,0,0,0,0,0,12928
999,"Oakdale","IN","40.656399999999998","-86.752799999999993",0,0,0,0,0,0,12655
1001,"Cayuga","IN","39.924199999999999","-87.424400000000006",0,0,4520671.985,0,0,0,6704
1002,"Connersville","IN","39.656100000000002","-85.175799999999995",0,0,0,0,0,0,-90
1004,"Edwardsport","IN","38.806699999999999","-87.247200000000007",0,0,0,0,1423079.6,0,755728.4
1005,"Markland","IN","38.779499999999999","-84.963999999999999",0,0,0,0,0,0,300014
1006,"Miami Wabash","IN","40.788400000000003","-85.817800000000005",0,0,0,0,0,0,15
1007,"Noblesville","IN","40.096899999999998","-85.971400000000003",0,0,0,0,0,0,316584
1008,"R Gallagher","IN","38.263599999999997","-85.838099999999997",0,0,896798.002,0,0,0,0
1010,"Wabash River","IN","39.53","-87.424700000000001",0,0,1888467.956,0,0,0,50
1011,"Broadway (IN)","IN","37.969116","-87.604878999999997",0,0,0,0,0,0,7306
1012,"F B Culley","IN","37.911099999999998","-87.327500000000001",0,0,1532180.007,0,0,0,0
1013,"Northeast (IN)","IN","38.021099999999997","-87.517200000000003",0,0,0,0,0,0,108
1016,"Butler-Warner Generation Plant","NC","35.098599999999998","-78.829400000000007",0,0,0,0,0,0,14376
1020,"Manti Lower","UT","39.255910999999998","-111.62149100000001",0,0,0,0,0,0,1711
1024,"Crawfordsville Power Plant","IN","40.048889000000003","-86.899199999999993",0,0,0,0,0,0,21368
1032,"Logansport","IN","40.758857999999996","-86.360288999999995",0,0,0,0,0,0,114789
1037,"Peru (IN)","IN","40.755099999999999","-86.057500000000005",0,0,0,0,0,0,18
1038,"Rensselaer City Light Plant","IN","40.939528000000003","-87.154471999999998",0,0,0,0,0,0,6186
1040,"Whitewater Valley","IN","39.802799999999998","-84.895300000000006",0,0,0,0,0,0,45133
1043,"Frank E Ratts","IN","38.520099999999999","-87.266199999999998",0,0,0,0,0,0,600019.004
1046,"Dubuque","IA","42.503100000000003","-90.658610999999993",0,0,0,0,0,0,10992
1047,"Lansing","IA","43.335900000000002","-91.167500000000004",0,0,1325241.523,0,0,0,3634.47
1048,"Milton L Kapp","IA","41.808100000000003","-90.233610999999996",0,0,787812.997,0,0,0,0
1060,"Duane Arnold Energy Center","IA","42.101100000000002","-91.778099999999995",0,0,0,0,2076234,2076234,0
1067,"Iowa Hydro LLC","IA","42.069986999999998","-90.697657000000007",0,0,0,0,0,0,6310
1068,"Marshalltown","IA","42.047400000000003","-92.859443999999996",0,0,0,0,0,0,9729
1073,"Prairie Creek","IA","41.944038999999997","-91.639167",0,0,703370.002,0,0,0,0
1077,"Sutherland","IA","42.047333000000002","-92.859443999999996",0,0,0,0,30701,0,0
1079,"Coralville GT","IA","41.671877000000002","-91.563998999999995",0,0,0,0,0,0,-223
1081,"Riverside","IA","41.54","-90.448099999999997",0,0,635836.005,0,0,0,0
1082,"Walter Scott Jr Energy Center","IA","41.18","-95.840800000000002",0,0,5399731.194,0,5399731.194,0,0
1084,"River Hills","IA","41.590218","-93.619499000000005",0,0,0,0,0,0,551
1091,"George Neal North","IA","42.299793999999999","-96.361706999999996",0,0,3342136.964,0,0,0,0
1097,"Merle Parr","IA","43.0563","-92.693200000000004",0,0,0,0,0,0,7
1104,"Burlington (IA)","IA","40.741199999999999","-91.116667000000007",0,0,1122914.048,0,0,0,1010
1105,"Centerville","IA","40.747799999999998","-92.873056000000005",0,0,0,0,0,0,-597
1109,"Keokuk","IA","40.396500000000003","-91.371899999999997",0,0,0,0,0,0,869780
1120,"Algona","IA","43.073300000000003","-94.239199999999997",0,0,0,0,0,0,238
1121,"Alta Municipal Utilities","IA","42.673299999999998","-95.303899999999999",0,0,0,0,0,0,0
1122,"Ames Electric Services Power Plant","IA","42.025799999999997","-93.608900000000006",0,0,0,0,283170.002,0,0
1123,"Anita","IA","41.444400000000002","-94.768900000000002",0,0,0,0,0,0,27.44
1124,"Atlantic","IA","41.408999999999999","-95",0,0,0,0,0,0,79
1125,"Bancroft","IA","43.292628000000001","-94.217074999999994",0,0,0,0,0,0,2
1126,"Bellevue","IA","42.25","-90.416700000000006",0,0,0,0,0,0,9
1127,"Bloomfield","IA","40.703099999999999","-92.425299999999993",0,0,0,0,0,0,56
1128,"Brooklyn","IA","41.727800000000002","-92.447900000000004",0,0,0,0,0,0,7
1129,"Cascade","IA","42.227499999999999","-91.113738999999995",0,0,0,0,0,0,11
1130,"Gas Turbine (IA)","IA","42.512","-92.475999999999999",0,0,0,0,0,0,967
1131,"Streeter Station","IA","42.526699999999998","-92.439400000000006",0,0,0,0,0,0,13714
1132,"Coggon","IA","42.292499999999997","-91.558099999999996",0,0,0,0,0,0,0
1134,"Corning","IA","40.973999999999997","-94.766900000000007",0,0,0,0,0,0,31
1135,"Dayton (IA)","IA","42.252499999999998","-94.058099999999996",0,0,0,0,0,0,18
1137,"Estherville","IA","43.402799999999999","-94.843299999999999",0,0,0,0,0,0,157
1138,"Forest City Light Plant","IA","43.263235000000002","-93.635383000000004",0,0,0,0,0,0,223
1141,"Gowrie","IA","42.274514000000003","-94.270195000000001",0,0,0,0,0,0,10
1142,"Graettinger","IA","43.239699999999999","-94.749799999999993",0,0,0,0,0,0,27
1143,"Grand Junction","IA","42.029600000000002","-94.369900000000001",0,0,0,0,0,0,9.8
1144,"Greenfield","IA","41.303888999999998","-94.460555999999997",0,0,0,0,0,0,16
1145,"Grundy Center City Light Plant","IA","42.363093999999997","-92.772322000000003",0,0,0,0,0,0,96
1146,"Harlan","IA","41.644542000000001","-95.315282999999994",0,0,0,0,0,0,4
1150,"Indianola","IA","41.359490999999998","-93.563267999999994",0,0,0,0,0,0,-703
1153,"Lake Park","IA","43.430100000000003","-95.315299999999993",0,0,0,0,0,0,37
1154,"Lake Mills","IA","43.417200000000001","-93.532200000000003",0,0,0,0,0,0,52
1155,"Lamoni Municipal Utilities","IA","40.622","-93.932599999999994",0,0,0,0,0,0,250
1156,"La Porte","IA","42.319400000000002","-92.196700000000007",0,0,0,0,0,0,122
1157,"Laurens","IA","42.848599999999998","-94.8506",0,0,0,0,0,0,73
1158,"Lenox","IA","40.880000000000003","-94.558899999999994",0,0,0,0,0,0,55
1160,"Manning","IA","41.906700000000001","-95.034700000000001",0,0,0,0,0,0,-71
1162,"Maquoketa 1","IA","42.035556","-90.665000000000006",0,0,0,0,0,0,-720
1163,"McGregor","IA","43.023733","-91.174926999999997",0,0,0,0,0,0,7
1164,"Milford","IA","43.326082999999997","-95.148339000000007",0,0,0,0,0,0,40
1165,"Montezuma","IA","41.586025999999997","-92.522800000000004",0,0,0,0,0,0,229
1166,"Mt Pleasant","IA","40.974200000000003","-91.562200000000004",0,0,0,0,0,0,608
1167,"Muscatine Plant #1","IA","41.3917","-91.056899999999999",0,0,958600.004,0,0,0,0
1168,"New Hampton","IA","43.068899999999999","-92.320099999999996",0,0,0,0,0,0,486
1169,"Ogden","IA","42.037199999999999","-94.046199999999999",0,0,0,0,0,0,-57
1172,"Osage (IA)","IA","43.279722","-92.810556000000005",0,0,0,0,0,0,5060
1173,"Ottumwa City of","IA","41.016345999999999","-92.414873",0,0,0,0,0,0,2515
1176,"Preston (IA)","IA","42.066099999999999","-90.391099999999994",0,0,0,0,0,0,0
1177,"Primghar","IA","43.087130000000002","-95.625960000000006",0,0,0,0,0,0,0
1180,"Rockford","IA","43.052999999999997","-92.959721999999999",0,0,0,0,0,0,6.86
1181,"Rock Rapids","IA","43.429443999999997","-96.169166000000004",0,0,0,0,0,0,21
1184,"Sibley One","IA","43.405000000000001","-95.726100000000002",0,0,0,0,0,0,62
1186,"Spencer Gas Turbine","IA","43.144584999999999","-95.144256999999996",0,0,0,0,0,0,170
1187,"State Center","IA","42.016669999999998","-93.163330000000002",0,0,0,0,0,0,62
1188,"Story City","IA","42.186076","-93.600479000000007",0,0,0,0,0,0,51
1190,"Stuart (IA)","IA","41.503889000000001","-94.3172",0,0,0,0,0,0,3
1191,"Sumner","IA","42.846400000000003","-92.097800000000007",0,0,0,0,0,0,26
1192,"Traer Main","IA","42.192599999999999","-92.4636",0,0,0,0,0,0,-65
1193,"Villisca Municipal Power Plant","IA","40.955599999999997","-94.975800000000007",0,0,0,0,0,0,12
1194,"Vinton","IA","42.169699999999999","-92.022199999999998",0,0,0,0,0,0,-242
1198,"Webster City","IA","42.471021999999998","-93.814989999999995",0,0,0,0,0,0,35
1199,"West Bend","IA","42.961151000000001","-94.445573999999993",0,0,0,0,0,0,35
1200,"West Liberty","IA","41.569127999999999","-91.264049999999997",0,0,0,0,0,0,290
1201,"Whittemore","IA","43.064444000000002","-94.421943999999996",0,0,0,0,0,0,0
1202,"Wilton","IA","41.587747999999998","-91.019456000000005",0,0,0,0,0,0,59
1203,"Winterset","IA","41.3215","-94.021900000000002",0,0,0,0,0,0,72
1206,"Summit Lake","IA","41.113599999999998","-94.347200000000001",0,0,0,0,0,0,6418
1217,"Earl F Wisdom","IA","43.160600000000002","-95.256900000000002",0,0,0,0,0,0,14317
1224,"Bird City","KS","39.758099999999999","-101.53189999999999",0,0,0,0,0,0,0
1225,"Colby","KS","39.403001000000003","-101.038202",0,0,0,0,0,0,0
1230,"Cimarron River","KS","37.161099999999998","-100.7619",0,0,0,0,0,0,29818
1233,"Fort Dodge","KS","37.732799999999997","-99.949700000000007",0,0,0,0,257372,0,0
1235,"Great Bend - Sunflower","KS","38.409999999999997","-98.868899999999996",0,0,0,0,0,0,4739
1239,"Riverton","KS","37.072615999999996","-94.698704000000006",0,0,0,0,0,0,117176
1240,"Gordon Evans Energy Center","KS","37.790300000000002","-97.521666999999994",0,0,0,0,0,0,342150
1241,"La Cygne","KS","38.348100000000002","-94.645600000000002",0,0,0,7919393.82,0,0,20389.204
1242,"Murray Gill","KS","37.596699999999998","-97.413611000000003",0,0,0,0,0,0,89345
1248,"Hutchinson Energy Center","KS","38.090600000000002","-97.874722000000006",0,0,0,0,33888,0,12909
1250,"Lawrence Energy Center","KS","39.007199999999997","-95.269166999999996",0,0,0,0,0,0,3673823.991
1252,"Tecumseh Energy Center","KS","39.053899999999999","-95.568888999999999",0,0,0,0,0,0,1328608.042
1258,"Anthony","KS","37.151699999999998","-98.031099999999995",0,0,0,0,0,0,786
1259,"Ashland","KS","37.193787","-99.763073000000006",0,0,0,0,0,0,98
1261,"Augusta Electric Plant No 1","KS","37.678454000000002","-96.97193",0,0,0,0,0,0,-258
1262,"Baldwin City Plant No 1","KS","38.789700000000003","-95.204999999999998",0,0,0,0,0,0,38
1263,"Belleville","KS","39.808100000000003","-97.650499999999994",0,0,0,0,0,0,305
1264,"Beloit","KS","39.457799999999999","-98.112200000000001",0,0,0,0,0,0,1148
1265,"Burlingame","KS","38.763300000000001","-95.852800000000002",0,0,0,0,0,0,35
1266,"Burlington (KS)","KS","38.193179000000001","-95.749510000000001",0,0,0,0,0,0,103.88
1268,"Chanute 2","KS","37.695300000000003","-95.458600000000004",0,0,0,0,0,0,2622
1270,"Clay Center","KS","39.373966000000003","-97.127211000000003",0,0,0,0,0,0,0
1271,"Coffeyville","KS","37.037343999999997","-95.612689000000003",0,0,0,0,0,0,14232
1272,"Colby City of","KS","39.394413999999998","-101.05837200000001",0,0,0,0,0,0,58
1274,"Ellinwood","KS","38.355556","-98.580600000000004",0,0,0,0,0,0,22
1276,"Erie","KS","37.566809999999997","-95.237499",0,0,0,0,0,0,15
1278,"Garnett Municipal","KS","38.285800000000002","-95.259399999999999",0,0,0,0,0,0,0
1279,"Girard","KS","37.507708999999998","-94.839318000000006",0,0,0,0,0,0,215
1280,"Goodland","KS","39.341622000000001","-101.70518800000001",0,0,0,0,0,0,-1557
1283,"Herington","KS","38.672800000000002","-96.941100000000006",0,0,0,0,0,0,0
1285,"Hill City","KS","39.378100000000003","-99.823899999999995",0,0,0,0,0,0,0
1286,"Hoisington","KS","38.527500000000003","-98.775800000000004",0,0,0,0,0,0,9
1287,"Holton","KS","39.473500000000001","-95.731549999999999",0,0,0,0,0,0,-338
1291,"Iola","KS","37.923076000000002","-95.425572000000003",0,0,0,0,0,0,1038
1292,"Jetmore","KS","38.085299999999997","-99.898899999999998",0,0,0,0,0,0,0
1295,"Quindaro","KS","39.1492","-94.638099999999994",0,0,1071102.982,0,0,0,1353
1296,"Kingman Municipal Power and Light Plant","KS","37.383110000000002","-98.070363999999998",0,0,0,0,0,0,3305
1297,"La Crosse","KS","38.531666999999999","-99.308333000000005",0,0,0,0,0,0,23
1299,"Larned","KS","38.179721999999998","-99.112499999999997",0,0,0,0,0,0,-300
1300,"Lincoln","KS","39.040799999999997","-98.147199999999998",0,0,0,0,0,0,177
1305,"McPherson 2","KS","38.363410999999999","-97.683350000000004",0,0,0,0,0,0,8160
1307,"Minneapolis City of","KS","39.119399999999999","-97.708600000000004",0,0,0,0,0,0,317
1308,"Mulvane Power Plant","KS","37.472448","-97.246748999999994",0,0,0,0,0,0,0
1313,"Osage City","KS","38.640599999999999","-95.818600000000004",0,0,0,0,0,0,-155
1314,"Osawatomie City of","KS","38.504199999999997","-94.977500000000006",0,0,0,0,0,0,2
1315,"Osborne","KS","39.441979000000003","-98.690296000000004",0,0,0,0,0,0,13
1316,"Ottawa","KS","38.615578999999997","-95.279741999999999",0,0,0,0,0,0,-328
1317,"Pratt","KS","37.635899999999999","-98.743300000000005",0,0,0,0,0,0,2659
1319,"Russell Downtown","KS","38.893332999999998","-98.856943999999999",0,0,0,0,0,0,410
1320,"Sabetha Power Plant","KS","39.904921999999999","-95.803366999999994",0,0,0,0,0,0,-643
1321,"St Francis","KS","39.773600000000002","-101.8122",0,0,0,0,0,0,0
1322,"St John","KS","38.008299999999998","-98.763300000000001",0,0,0,0,0,0,29
1324,"Sharon Spring","KS","38.8917","-101.74809999999999",0,0,0,0,0,0,0
1325,"Stafford","KS","37.955300000000001","-98.592799999999997",0,0,0,0,0,0,0
1326,"Sterling","KS","38.202500000000001","-98.198599999999999",0,0,0,0,0,0,60
1327,"Stockton","KS","39.377200000000002","-99.294700000000006",0,0,0,0,0,0,-135
1328,"Wamego","KS","39.199199999999998","-96.308599999999998",0,0,0,0,0,0,-328
1329,"Washington","KS","39.818899999999999","-97.055599999999998",0,0,0,0,0,0,24
1330,"Wellington 1","KS","37.261372000000001","-97.405699999999996",0,0,0,0,0,0,81
1332,"West 14th Street","KS","37.235399999999998","-97.010999999999996",0,0,0,0,0,0,247
1336,"Garden City","KS","37.970300000000002","-100.8956",0,0,0,0,10147,0,20616
1353,"Big Sandy","KY","38.170699999999997","-82.617599999999996",0,0,0,0,0,0,4708473.025
1354,"Dix Dam","KY","37.7864","-84.702799999999996",0,0,0,0,0,0,72287
1355,"E W Brown","KY","37.788310000000003","-84.712569999999999",0,0,0,0,2635917.042,0,506806.999
1356,"Ghent","KY","38.749699999999997","-85.034999999999997",0,0,0,0,12606171.663,0,0
1357,"Green River","KY","37.363599999999998","-87.121399999999994",0,0,1027825.996,0,0,0,0
1358,"Haefling","KY","38.0794","-84.519400000000005",0,0,0,0,0,0,736
1359,"Mother Ann Lee","KY","37.829700000000003","-84.724699999999999",0,0,0,0,0,0,7744
1363,"Cane Run","KY","38.183100000000003","-85.889200000000002",0,0,2503871.968,0,0,0,-143
1364,"Mill Creek (KY)","KY","38.052500000000002","-85.910300000000007",0,0,4357554.4845,0,4357554.4845,0,0
1365,"Ohio Falls","KY","38.283200000000001","-85.779200000000003",0,0,0,0,0,0,271888
1366,"Paddys Run","KY","38.223591999999996","-85.841703999999993",0,0,0,0,0,0,104607
1368,"Zorn","KY","38.280278000000003","-85.702331000000001",0,0,0,0,0,0,78
1371,"Barkley","KY","37.021700000000003","-88.221100000000007",0,0,0,0,0,0,601111
1374,"Elmer Smith","KY","37.794199999999996","-87.0608",0,0,2370188.216,0,0,0,597.779
1376,"Paris (KY)","KY","38.204900000000002","-84.238299999999995",0,0,0,0,0,0,1039
1377,"Kentucky Dam","KY","37.013100000000001","-88.269199999999998",0,0,0,0,0,0,1238564
1378,"Paradise","KY","37.260800000000003","-86.978300000000004",0,0,0,0,13334680.439,0,0
1379,"Shawnee","KY","37.151699999999998","-88.775000000000006",0,0,7030667.029,0,0,0,0
1380,"Wolf Creek","KY","36.869100000000003","-85.147000000000006",0,0,0,0,0,0,880013
1381,"Kenneth C Coleman","KY","37.963099999999997","-86.7911",0,0,1064462.046,0,0,0,0
1382,"HMP&L Station Two Henderson","KY","37.646900000000002","-87.502799999999993",0,0,0,0,2302384.018,0,0
1383,"Robert A Reid","KY","37.646099999999997","-87.501900000000006",0,0,0,0,0,0,200569.998
1384,"Cooper","KY","36.998100000000001","-84.591899999999995",0,0,0,0,0,0,1029439.997
1385,"Dale","KY","37.880600000000001","-84.261899999999997",0,0,16062,0,0,0,0
1391,"Louisiana 1","LA","30.4922","-91.186400000000006",0,0,0,0,0,0,3032415.985
1393,"R S Nelson","LA","30.284400000000002","-93.2911",0,0,0,0,5023290.948,0,0
1394,"Willow Glen","LA","30.2743","-91.116399999999999",0,0,1016421.022,0,0,0,0
1396,"Coughlin Power Station","LA","30.843900000000001","-92.261111",0,0,0,1635399,0,0,0
1400,"Teche","LA","29.822222","-91.542500000000004",0,0,0,122909,0,0,8854
1401,"Buras","LA","29.359145000000002","-89.537263999999993",0,0,0,0,0,0,3781
1402,"Little Gypsy","LA","30.005067","-90.461693999999994",0,0,1423842,0,0,0,0
1403,"Nine Mile Point","LA","29.947199999999999","-90.145799999999994",0,0,4103202,0,0,0,0
1404,"Sterlington","LA","32.704700000000003","-92.0792",0,0,0,0,10814,0,0
1409,"Michoud","LA","30.008099999999999","-89.937200000000004",0,0,2002948,0,0,0,0
1416,"Arsenal Hill","LA","32.518099999999997","-93.761099999999999",0,0,0,30010,0,0,0
1417,"Lieberman","LA","32.704700000000003","-93.959699999999998",0,0,0,63315,0,0,0
1435,"Franklin (LA)","LA","29.822222","-91.542500000000004",0,0,0,0,0,0,13
1439,"Houma","LA","29.5806","-90.722499999999997",0,0,0,0,0,0,14111
1443,"Louis Doc Bonin","LA","30.238038","-92.046263999999994",0,0,0,0,0,0,-2998
1447,"Minden","LA","32.604638999999999","-93.294354999999996",0,0,0,0,0,0,408
1449,"Morgan City","LA","29.691435999999999","-91.188491999999997",0,0,0,0,0,0,5134
1453,"New Roads","LA","30.726111","-91.368333000000007",0,0,0,0,0,0,115
1455,"Plaquemine","LA","30.273333000000001","-91.256699999999995",0,0,0,0,0,0,1110
1456,"Rayne","LA","30.2044","-92.248599999999996",0,0,0,0,0,0,4
1464,"Big Cajun 1","LA","30.6739","-91.355599999999995",0,0,0,0,21082,0,18278
1466,"Bar Harbor","ME","44.381700000000002","-68.286900000000003",0,0,0,0,0,0,163
1468,"Eastport","ME","44.913600000000002","-67.003299999999996",0,0,0,0,0,0,187
1469,"Ellsworth Hydro Station","ME","44.544199999999996","-68.430599999999998",0,0,0,0,0,0,35708
1472,"Howland Hydro Station","ME","45.238599999999998","-68.657200000000003",0,0,0,0,0,0,5271
1474,"Medway","ME","45.607799999999997","-68.544399999999996",0,0,0,0,0,0,173
1475,"Milford Hydro Station","ME","44.942064000000002","-68.645039999999995",0,0,0,0,0,0,40933
1478,"Stillwater Hydro Station","ME","44.909399999999998","-68.683300000000003",0,0,0,0,0,0,10782
1480,"Androscoggin 3","ME","44.135331999999998","-70.201498999999998",0,0,0,0,0,0,31136
1481,"Bar Mills","ME","43.613599999999998","-70.552499999999995",0,0,0,0,0,0,11522
1482,"Bonny Eagle","ME","43.687688000000001","-70.611553000000001",0,0,0,0,0,0,47051
1483,"Brunswick Hydro","ME","43.920485999999997","-69.967819000000006",0,0,0,0,0,0,99631
1484,"Cape Gas Turbine","ME","43.643599999999999","-70.254400000000004",0,0,0,0,0,0,1841
1486,"Cataract Hydro","ME","43.495600000000003","-70.447199999999995",0,0,0,0,0,0,37579
1487,"Continental Mills","ME","44.092001000000003","-70.221923000000004",0,0,0,0,0,0,0
1488,"Deer Rips","ME","44.134571999999999","-70.203715000000003",0,0,0,0,0,0,37602
1491,"Gulf Island","ME","44.152853999999998","-70.209378000000001",0,0,0,0,0,0,141869
1492,"Harris Hydro","ME","45.459200000000003","-69.865799999999993",0,0,0,0,0,0,207992
1493,"Hiram","ME","43.852499999999999","-70.796899999999994",0,0,0,0,0,0,49619
1497,"Messalonskee 2 (Oakland)","ME","44.548544","-69.710403999999997",0,0,0,0,0,0,13486
1498,"Messalonskee 3","ME","44.569871999999997","-69.681841000000006",0,0,0,0,0,0,7661
1500,"Messalonskee 5","ME","44.534396999999998","-69.652231999999998",0,0,0,0,0,0,7209
1501,"North Gorham","ME","43.802517000000002","-70.449920000000006",0,0,0,0,0,0,10404
1504,"Shawmut","ME","44.629517","-69.583527000000004",0,0,0,0,0,0,54169
1505,"Skelton","ME","43.570799999999998","-70.558300000000003",0,0,0,0,0,0,66764
1507,"William F Wyman","ME","43.750799999999998","-70.156700000000001",0,0,253188.001,0,0,0,0
1508,"West Buxton","ME","43.666870000000003","-70.602125000000001",0,0,0,0,0,0,28930
1509,"Weston Hydro","ME","44.763874999999999","-69.718279999999993",0,0,0,0,0,0,86942
1510,"Williams Hydro","ME","44.9589","-69.8703",0,0,0,0,0,0,94155
1511,"Wyman Hydro","ME","45.070300000000003","-69.906400000000005",0,0,0,0,0,0,384448
1513,"Caribou Generation Station","ME","46.847999999999999","-68.002600000000001",0,0,0,0,0,0,4413
1516,"Squa Pan Hydro Station","ME","46.556477000000001","-68.325537999999995",0,0,0,0,0,0,1030
1552,"C P Crane","MD","39.323604000000003","-76.365119000000007",0,0,491179.003,0,0,0,2948
1553,"Gould Street","MD","39.266300000000001","-76.604699999999994",0,0,17572,0,0,0,0
1554,"Herbert A Wagner","MD","39.178100000000001","-76.526799999999994",0,0,1375588.043,0,0,0,3794
1555,"Notch Cliff","MD","39.421700000000001","-76.508700000000005",0,0,0,0,0,0,7430
1556,"Perryman","MD","39.442836","-76.221761000000001",0,0,0,0,0,0,116870
1557,"Philadelphia","MD","39.2986","-76.563599999999994",0,0,0,0,0,0,13387
1559,"Riverside (MD)","MD","39.236899999999999","-76.513300000000001",0,0,0,0,0,0,22493
1560,"Westport","MD","39.271900000000002","-76.618600000000001",0,0,0,0,0,0,6204
1563,"Crisfield","MD","37.9833","-75.833299999999994",0,0,0,0,0,0,2243
1564,"Vienna Operations","MD","38.4878","-75.820800000000006",0,0,0,0,14871,0,712
1567,"Deep Creek","MD","39.523000000000003","-79.412999999999997",0,0,0,0,0,0,20876
1571,"Chalk Point LLC","MD","38.544400000000003","-76.686099999999996",0,0,1456733.9785,0,1456733.9785,0,60163
1572,"Dickerson","MD","39.209699999999998","-77.464399999999998",0,0,1189286.984,0,0,0,77640
1573,"Morgantown Generating Plant","MD","38.359200000000001","-76.976699999999994",0,0,6134203.016,0,0,0,47098
1574,"Conowingo","MD","39.657200000000003","-76.175200000000004",0,0,0,0,0,0,1594647
1580,"Easton","MD","38.778599999999997","-76.076899999999995",0,0,0,0,0,0,4961
1586,"Exelon Framingham LLC","MA","42.267200000000003","-71.398300000000006",0,0,0,0,0,0,2769
1587,"Exelon L Street","MA","42.339199999999998","-71.035300000000007",0,0,0,0,0,0,811
1588,"Mystic Generating Station","MA","42.390799999999999","-71.067499999999995",1624933,0,214435,0,0,0,703
1590,"Pilgrim Nuclear Power Station","MA","41.943800000000003","-70.578000000000003",0,0,5769154,0,0,0,0
1592,"Exelon Medway LLC","MA","42.140028000000001","-71.446440999999993",0,0,0,0,0,0,7776
1595,"Kendall Square Station","MA","42.363300000000002","-71.0792",0,0,0,0,0,0,1579727.011
1597,"Oak Bluffs Diesel Generating Facility","MA","41.450800000000001","-70.554699999999997",0,0,0,0,0,0,178
1599,"Canal","MA","41.769399999999997","-70.509699999999995",0,0,373544.002,0,0,0,0
1603,"Boatlock","MA","42.208599999999997","-72.601399999999998",0,0,0,0,0,0,12059
1604,"Chemical","MA","42.191899999999997","-72.609700000000004",0,0,0,0,0,0,3602
1605,"Hadley Falls","MA","42.2119","-72.6036",0,0,0,0,0,0,98741
1606,"Mount Tom","MA","42.2806","-72.605500000000006",0,0,0,0,0,0,5236
1607,"Riverside Holyoke","MA","42.200592","-72.594431999999998",0,0,0,0,0,0,33433
1615,"Nantucket","MA","41.258299999999998","-70.051699999999997",0,0,0,0,0,0,168
1619,"Brayton Point","MA","41.710299999999997","-71.193100000000001",0,0,0,0,2717648.991,0,0
1620,"Deerfield 5","MA","42.691180000000003","-72.956100000000006",0,0,0,0,0,0,53059
1626,"Salem Harbor","MA","42.525599999999997","-70.877200000000002",0,0,0,0,0,0,259756.004
1629,"Cabot","MA","42.587499999999999","-72.579300000000003",0,0,0,0,0,0,330568
1630,"Cobble Mountain","MA","42.117111999999999","-72.864662999999993",0,0,0,0,0,0,19131
1631,"Doreen","MA","42.443300000000001","-73.205799999999996",0,0,0,0,0,0,215
1634,"Gardners Falls","MA","42.5914","-72.730800000000002",0,0,0,0,0,0,1213
1637,"Putts Bridge","MA","42.157896000000001","-72.486429999999999",0,0,0,0,0,0,14273
1638,"Redbridge","MA","42.176046999999997","-72.409520999999998",0,0,0,0,0,0,8595
1642,"NAEA Energy Massachusetts LLC","MA","42.094999999999999","-72.594999999999999",0,0,5712.022,0,0,0,38512.978
1643,"Woodland Road","MA","42.336215000000003","-73.235485999999995",0,0,0,0,0,0,126
1660,"Potter Station 2","MA","42.234999999999999","-70.967200000000005",0,0,0,0,0,0,80481
1670,"High Street Station","MA","42.698599999999999","-70.869699999999995",0,0,0,0,0,0,619
1678,"Waters River","MA","42.542949","-70.928314",0,0,0,0,0,0,10647
1682,"Cleary Flood","MA","41.865299999999998","-71.106099999999998",0,0,5163,0,437.849,0,134123.15
1693,"Alcona","MI","44.561960999999997","-83.804505000000006",0,0,0,0,0,0,30711
1694,"Allegan Dam","MI","42.563803","-85.953975999999997",0,0,0,0,0,0,13444
1695,"B C Cobb","MI","43.258768000000003","-86.242267999999996",0,0,0,0,0,0,1888680.008
1698,"C W Tippy","MI","44.259135000000001","-85.939565000000002",0,0,0,0,0,0,68329
1700,"Cooke","MI","44.472624000000003","-83.571946999999994",0,0,0,0,0,0,29612
1701,"Croton","MI","43.437322000000002","-85.664462",0,0,0,0,0,0,25964
1702,"Dan E Karn","MI","43.644995999999999","-83.840074000000001",0,0,1579391,0,448983.3,0,20131.66
1704,"Five Channels","MI","44.455517999999998","-83.676274000000006",0,0,0,0,0,0,24376
1705,"Foote","MI","44.435381","-83.440721999999994",0,0,0,0,0,0,30345
1706,"Gaylord - Consumers","MI","45.0306","-84.703900000000004",0,0,0,0,0,0,11373
1707,"Hardy","MI","43.486618","-85.629866000000007",0,0,0,0,0,0,108301
1708,"Hodenpyl","MI","44.362859999999998","-85.819968000000003",0,0,0,0,0,0,55117
1710,"J H Campbell","MI","42.910296000000002","-86.200739999999996",0,0,0,0,0,0,8591310.967
1712,"Loud","MI","44.463099999999997","-83.720799999999997",0,0,0,0,0,0,17766
1713,"Ludington","MI","43.894199999999998","-86.444699999999997",0,0,0,0,0,0,-700889
1714,"Mio","MI","44.661113999999998","-84.131691000000004",0,0,0,0,0,0,16325
1715,"Palisades","MI","42.323","-86.314599999999999",0,0,0,0,5822926,0,0
1716,"Rogers","MI","43.613000999999997","-85.479468999999995",0,0,0,0,0,0,25367
1718,"Straits","MI","45.766858999999997","-84.756601000000003",0,0,0,0,0,0,2606
1719,"Thetford","MI","43.156745999999998","-83.628589000000005",0,0,0,0,0,0,-795
1720,"J C Weadock","MI","43.639927","-83.844712000000001",0,0,0,0,0,0,1710906.971
1722,"Webber","MI","42.952800000000003","-84.902500000000003",0,0,0,0,0,0,11249
1723,"J R Whiting","MI","41.792113999999998","-83.449479999999994",0,0,0,0,0,0,1818778.956
1725,"Colfax","MI","42.658653000000001","-84.095180999999997",0,0,0,0,0,0,71
1728,"Delray","MI","42.294699999999999","-83.101900000000001",0,0,0,0,0,0,12639
1729,"Fermi","MI","41.963099999999997","-83.258099999999999",0,0,0,0,7792130,0,1303
1730,"Hancock","MI","42.549700000000001","-83.442499999999995",0,0,0,0,0,0,6482
1733,"Monroe (MI)","MI","41.890599999999999","-83.346400000000003",0,0,0,0,0,0,15294861.534
1734,"Northeast (MI)","MI","42.45","-83.0381",0,0,0,0,0,0,490
1735,"Oliver","MI","43.8264","-83.238299999999995",0,0,0,0,0,0,-379
1737,"Placid 12","MI","42.710599999999999","-83.456900000000005",0,0,0,0,0,0,173
1739,"Putnam (MI)","MI","42.710799999999999","-83.456100000000006",0,0,0,0,0,0,116
1740,"River Rouge","MI","42.273899999999998","-83.111900000000006",0,0,2209330.834,0,0,0,86524.166
1741,"Slocum","MI","42.122500000000002","-83.185000000000002",0,0,0,0,0,0,-133
1743,"St Clair","MI","42.764200000000002","-82.471900000000005",0,0,5389215.006,0,0,0,26720.959
1744,"Superior","MI","42.2639","-83.642200000000003",0,0,0,0,0,0,-219
1745,"Trenton Channel","MI","42.121699999999997","-83.180800000000005",0,0,2525022.643,0,0,0,10785.403
1746,"Wilmot","MI","43.456600000000002","-83.188900000000004",0,0,0,0,0,0,46
1750,"Manistique","MI","45.955013999999998","-86.256291000000004",0,0,0,0,0,0,329
1751,"Edison Sault","MI","46.516199999999998","-84.372900000000001",0,0,0,0,0,0,220031
1753,"Berrien Springs","MI","41.943899999999999","-86.328900000000004",0,0,0,0,0,0,31827
1754,"Buchanan (MI)","MI","41.839565999999998","-86.351050000000001",0,0,0,0,0,0,17973
1756,"Saxon Falls","WI","46.539200000000001","-90.374200000000002",0,0,0,0,0,0,12243
1757,"Superior Falls","MI","46.564601000000003","-90.416146999999995",0,0,0,0,0,0,10281
1760,"Constantine","MI","41.843600000000002","-85.669399999999996",0,0,0,0,0,0,5139
1761,"Mottville","MI","41.805599999999998","-85.750500000000002",0,0,0,0,0,0,8146
1769,"Presque Isle","MI","46.578899999999997","-87.394999999999996",0,0,0,0,0,0,1892723.032
1771,"Escanaba","MI","45.771667000000001","-87.063922000000005",0,0,0,0,0,0,24839
1772,"John H Warden","MI","46.755299999999998","-88.455799999999996",0,0,0,0,0,0,118046
1773,"Prickett","MI","46.726100000000002","-88.662499999999994",0,0,0,0,0,0,5400
1774,"Victoria Dam","MI","46.696399999999997","-89.2089",0,0,0,0,0,0,63170
1775,"Brule","WI","45.947200000000002","-88.218900000000005",0,0,0,0,0,0,16591
1776,"Chalk Hill","MI","45.513599999999997","-87.801100000000005",0,0,0,0,0,0,37223
1777,"Hemlock Falls","MI","46.131100000000004","-88.224999999999994",0,0,0,0,0,0,9650
1778,"Kingsford","MI","45.807955999999997","-88.125120999999993",0,0,0,0,0,0,29115
1780,"Michigamme Falls","MI","45.955300000000001","-88.195800000000006",0,0,0,0,0,0,32433
1781,"Peavy Falls","MI","45.990780999999998","-88.210514000000003",0,0,0,0,0,0,54309
1784,"Twin Falls (MI)","MI","45.871899999999997","-88.069400000000002",0,0,0,0,0,0,34331
1785,"Way Dam","MI","46.159199999999998","-88.235299999999995",0,0,0,0,0,0,2328
1786,"White Rapids","MI","45.482084","-87.802177999999998",0,0,0,0,0,0,36848
1787,"Grand Rapids","MI","45.354700000000001","-87.6494",0,0,0,0,0,0,32827
1818,"Clinton","MI","42.072499999999998","-83.971400000000003",0,0,0,0,0,0,-62
1821,"Crystal Falls","MI","46.106278000000003","-88.334530999999998",0,0,0,0,0,0,5252
1822,"Mistersky","MI","42.303899999999999","-83.090299999999999",0,0,0,0,0,0,0
1825,"J B Sims","MI","43.070599999999999","-86.234999999999999",0,0,0,0,0,0,174462.003
1826,"Grand Haven Diesel Plant","MI","43.061188999999999","-86.236639999999994",0,0,0,0,0,0,-76
1827,"Hart","MI","43.706699999999998","-86.436700000000002",0,0,0,0,0,0,0
1829,"Hillsdale","MI","41.906100000000002","-84.631900000000002",0,0,0,0,0,0,0
1830,"James De Young","MI","42.7956","-86.113299999999995",0,0,0,0,0,0,51238
1831,"Eckert Station","MI","42.718389999999999","-84.558080000000004",0,0,549251.998,0,0,0,0
1832,"Erickson Station","MI","42.692222000000001","-84.657222000000004",0,0,0,0,935528.998,0,0
1840,"Plant Four","MI","46.575964999999997","-87.403578999999993",0,0,0,0,0,0,255
1842,"James R Smith","MI","46.571638999999998","-87.410454999999999",0,0,0,0,0,0,13361
1843,"Shiras","MI","46.530597999999998","-87.392206000000002",0,0,0,0,0,0,303816.005
1844,"Marshall (MI)","MI","42.271700000000003","-84.941100000000006",0,0,0,0,0,0,503
1846,"Newberry","MI","46.593299999999999","-85.818299999999994",0,0,0,0,0,0,53
1848,"Norway (MI)","MI","45.788899999999998","-87.905799999999999",0,0,0,0,0,0,28665
1851,"Frank Jenkins","MI","42.864400000000003","-84.903099999999995",0,0,0,0,0,0,0
1852,"St Louis","MI","43.401899999999998","-84.601399999999998",0,0,0,0,0,0,666
1853,"Main Street (MI)","MI","43.728900000000003","-83.436700000000002",0,0,0,0,0,0,2
1855,"Sturgis City  Diesel Plant","MI","41.799199999999999","-85.425600000000003",0,0,0,0,0,0,41
1856,"Hydro Plant","MI","41.9711","-85.5381",0,0,0,0,0,0,8771
1865,"Saint Marys Falls","MI","46.506250000000001","-84.349266999999998",0,0,0,0,0,0,158761
1866,"Wyandotte","MI","42.208100000000002","-83.145300000000006",0,0,0,0,0,0,104020
1867,"Zeeland","MI","42.806699999999999","-86.055800000000005",0,0,0,0,0,0,-344
1868,"Dafter","MI","46.3292","-84.384699999999995",0,0,0,0,0,0,217
1871,"Kleber","MI","45.391984000000001","-84.333257000000003",0,0,0,0,0,0,7286
1873,"Tower","MI","45.362819999999999","-84.294970000000006",0,0,0,0,0,0,75
1874,"Caro","MI","43.4878","-83.388099999999994",0,0,0,0,0,0,0
1875,"Ubly","MI","43.680599999999998","-82.947800000000001",0,0,0,0,0,0,0.98
1877,"George Johnson","MI","43.839300000000001","-85.426000000000002",0,0,0,0,0,0,7777
1880,"Claude Vandyke","MI","42.731000000000002","-85.855099999999993",0,0,0,0,0,0,548
1881,"Vestaburg","MI","43.401600000000002","-84.914100000000005",0,0,0,0,0,0,654
1888,"Fox Lake","MN","43.672800000000002","-94.707499999999996",0,0,0,0,0,0,880
1889,"Hills","MN","43.528874000000002","-96.364722",0,0,0,0,0,0,-119
1891,"Syl Laskin","MN","47.5306","-92.161900000000003",0,0,346845.999,0,0,0,0
1892,"Blanchard","MN","45.861400000000003","-94.359200000000001",0,0,0,0,0,0,100393
1893,"Clay Boswell","MN","47.261099999999999","-93.652799999999999",0,0,3679830.516,0,3679830.516,0,0
1894,"Fond Du Lac","MN","46.666767999999998","-92.293897000000001",0,0,0,0,0,0,34370
1895,"Knife Falls","MN","46.726627000000001","-92.448618999999994",0,0,0,0,0,0,8397
1896,"Little Falls (MN)","MN","45.975012999999997","-94.369094000000004",0,0,0,0,0,0,34311
1897,"M L Hibbard","MN","46.735331000000002","-92.151711000000006",0,0,0,0,0,0,19635
1898,"Pillager","MN","46.316032999999997","-94.484943999999999",0,0,0,0,0,0,9891
1899,"Scanlon","MN","46.709125999999998","-92.421733000000003",0,0,0,0,0,0,5684
1900,"Sylvan","MN","46.305","-94.377499999999998",0,0,0,0,0,0,10928
1901,"Thomson","MN","46.655000000000001","-92.333299999999994",0,0,0,0,0,0,11395
1902,"Winton","MN","47.934399999999997","-91.763900000000007",0,0,0,0,0,0,19602
1904,"Black Dog","MN","44.8108","-93.250100000000003",0,0,0,1842094.031,0,0,0
1910,"Granite City","MN","45.575600000000001","-94.140799999999999",0,0,0,0,0,0,-290
1911,"Hennepin Island","MN","44.982359000000002","-93.254163000000005",0,0,0,0,0,0,63382
1912,"High Bridge","MN","44.931399999999996","-93.111699999999999",0,0,1016760,0,0,0,0
1913,"Inver Hills","MN","44.780999999999999","-93.042000000000002",0,0,0,0,0,0,2572
1914,"Key City","MN","44.197400000000002","-94.007800000000003",0,0,0,0,0,0,-388
1915,"Allen S King","MN","45.03","-92.778599999999997",0,0,2992941.966,0,0,0,0
1922,"Monticello Nuclear Facility","MN","45.333799999999997","-93.849299999999999",0,0,4323966,0,0,0,0
1925,"Prairie Island","MN","44.622","-92.633300000000006",0,0,8383200,0,0,0,0
1926,"Red Wing","MN","44.569200000000002","-92.516912000000005",0,0,0,0,0,0,109528
1927,"Riverside (MN)","MN","45.020299999999999","-93.275300000000001",0,0,1007619.29,0,0,0,2.709
1929,"St James","MN","43.621667000000002","-95.678888999999998",0,0,0,0,0,0,52
1934,"Wilmarth","MN","44.1967","-94.000900000000001",0,0,0,0,0,0,106945
1943,"Hoot Lake","MN","46.290641000000001","-96.043251999999995",0,0,290782.9995,0,290782.9995,0,4669
1956,"Adrian","MN","43.639167","-95.943611000000004",0,0,0,0,0,0,38
1958,"Alexandria","MN","45.889167","-95.379722000000001",0,0,0,0,0,0,7.84
1961,"Austin Northeast","MN","43.7014","-92.962599999999995",0,0,0,0,0,0,0
1964,"Benson City of","MN","45.314444000000002","-95.602777000000003",0,0,0,0,0,0,71
1966,"Blooming Prairie","MN","43.922499999999999","-93.124700000000004",0,0,0,0,0,0,131
1967,"Blue Earth","MN","43.637500000000003","-94.101667000000006",0,0,0,0,0,0,42
1969,"Delano","MN","45.041378000000002","-93.790521999999996",0,0,0,0,0,0,42.14
1970,"Detroit Lakes","MN","46.817500000000003","-95.843333000000001",0,0,0,0,0,0,38
1971,"Elk River City of","MN","45.315800000000003","-93.578100000000006",0,0,0,0,0,0,26490
1972,"Fairfax","MN","44.527799999999999","-94.721699999999998",0,0,0,0,0,0,9
1973,"Fairmont (MN)","MN","43.657899999999998","-94.464699999999993",0,0,0,0,0,0,15271
1975,"Glencoe","MN","44.770899999999997","-94.158199999999994",0,0,0,0,0,0,342
1976,"Grand Marais","MN","47.775799999999997","-90.339200000000005",0,0,0,0,0,0,180
1977,"Granite Falls","MN","44.811684999999997","-95.534549999999996",0,0,0,0,0,0,2175
1979,"Hibbing","MN","47.429400000000001","-92.935000000000002",0,0,0,0,0,0,146028.982
1980,"Hutchinson Plant #1","MN","44.895741000000001","-94.368432999999996",0,0,0,0,0,0,15483
1982,"Janesville","MN","44.112200000000001","-93.694400000000002",0,0,0,0,0,0,49.98
1983,"Kenyon Municipal","MN","44.268900000000002","-92.971400000000003",0,0,0,0,0,0,13
1985,"Lake Crystal","MN","44.106887999999998","-94.219696999999996",0,0,0,0,0,0,51
1987,"Lanesboro","MN","43.720025999999997","-91.977738000000002",0,0,0,0,0,0,325
1989,"Litchfield","MN","45.115000000000002","-94.528099999999995",0,0,0,0,0,0,392
1990,"Luverne","MN","43.654443999999998","-96.201943999999997",0,0,0,0,0,0,50
1993,"Marshall (MN)","MN","44.446584999999999","-95.792118000000002",0,0,0,0,0,0,75
1994,"Melrose","MN","45.674999999999997","-94.815276999999995",0,0,0,0,0,0,0
1995,"Moorhead","MN","46.853611000000001","-96.731110999999999",0,0,0,0,0,0,0
1996,"Moose Lake","MN","46.448900000000002","-92.781400000000005",0,0,0,0,0,0,284
1997,"Mora","MN","45.895800000000001","-93.294200000000004",0,0,0,0,0,0,295
1998,"Mountain Lake","MN","43.9405","-94.943399999999997",0,0,0,0,0,0,3924
1999,"New Prague","MN","44.540300000000002","-93.580600000000004",0,0,0,0,0,0,-1327
2001,"New Ulm","MN","44.315899999999999","-94.458100000000002",0,0,0,0,0,0,2705
2002,"North Branch (MN)","MN","45.5017","-92.968599999999995",0,0,0,0,0,0,407.68
2003,"Owatonna","MN","44.083300000000001","-93.23",0,0,0,0,0,0,724.22
2004,"Preston (MN)","MN","43.672199999999997","-92.084699999999998",0,0,0,0,0,0,91
2005,"Princeton (MN)","MN","45.573099999999997","-93.576099999999997",0,0,0,0,0,0,-8
2007,"Rochester Hydro","MN","44.212980999999999","-92.480176999999998",0,0,0,0,0,0,11687
2008,"Silver Lake","MN","44.028179999999999","-92.460376999999994",0,0,0,0,0,0,-4901
2009,"Redwood Falls","MN","44.543100000000003","-95.117800000000003",0,0,0,0,0,0,464.52
2011,"Sleepy Eye","MN","44.298099999999998","-94.574399999999997",0,0,0,0,0,0,25
2012,"Springfield (MN)","MN","44.244700000000002","-94.975800000000007",0,0,0,0,0,0,98
2014,"Thief River Falls","MN","48.114261999999997","-96.179175999999998",0,0,0,0,0,0,2308
2015,"Truman","MN","43.828415","-94.436908000000003",0,0,0,0,0,0,11
2018,"Virginia","MN","47.522427999999998","-92.540951000000007",0,0,0,0,0,0,93358
2020,"Wells IC","MN","43.744529999999997","-93.724129000000005",0,0,0,0,0,0,83
2021,"Westbrook","MN","44.039900000000003","-95.442899999999995",0,0,0,0,0,0,25
2022,"Willmar","MN","45.121704999999999","-95.053235999999998",0,0,0,0,0,0,36325
2023,"Windom","MN","43.868110000000001","-95.114444000000006",0,0,0,0,0,0,34
2024,"Worthington","MN","43.633490000000002","-95.609234000000001",0,0,0,0,0,0,16310
2038,"Cambridge CT","MN","45.600999999999999","-93.208100000000002",0,0,0,0,0,0,32339
2039,"Elk River","MN","45.296796999999998","-93.558447000000001",0,0,0,0,0,0,176694
2042,"Maple Lake","MN","45.229073","-94.009673000000006",0,0,0,0,0,0,452
2047,"Chevron Oil","MS","30.34","-88.491900000000001",0,0,0,0,0,0,1093264
2048,"Sweatt","MS","32.292499999999997","-88.746099999999998",0,0,0,0,0,0,9257
2049,"Jack Watson","MS","30.4392","-89.028599999999997",0,0,2105402.103,0,2105402.103,0,1568.772
2050,"Baxter Wilson","MS","32.283099999999997","-90.930599999999998",0,0,24779.647,0,0,0,51.353
2053,"Rex Brown","MS","32.356954000000002","-90.212969999999999",0,0,0,63508,0,0,170
2059,"L L Wilkins","MS","34.1845","-90.562662000000003",0,0,0,0,0,0,223
2062,"Henderson","MS","33.517315000000004","-90.209660999999997",0,0,0,0,0,0,8743
2063,"Wright","MS","33.516582999999997","-90.183336999999995",0,0,0,0,0,0,0
2067,"Yazoo","MS","32.845799999999997","-90.421099999999996",0,0,0,0,0,0,226
2068,"Benndale","MS","30.8889","-88.805400000000006",0,0,0,0,0,0,593
2070,"Moselle","MS","31.527999999999999","-89.300399999999996",0,0,0,0,859392,0,29069
2071,"Paulding","MS","32.030155000000001","-89.085549999999998",0,0,0,0,0,0,15
2076,"Asbury","MO","37.361314999999998","-94.589259999999996",0,0,0,0,0,0,1060478.002
2079,"Hawthorn","MO","39.130600000000001","-94.477800000000002",0,0,3400862.022,0,0,0,12317
2080,"Montrose","MO","38.311399999999999","-93.934799999999996",0,0,0,0,0,0,2870968.965
2081,"Northeast (MO)","MO","39.122799999999998","-94.560599999999994",0,0,0,0,0,0,1055
2082,"Fairgrounds","MO","38.593499999999999","-92.220600000000005",0,0,0,0,0,0,113
2083,"Kirksville","MO","40.224525","-92.584928000000005",0,0,0,0,0,0,7
2090,"Nevada","MO","37.850299999999997","-94.344399999999993",0,0,0,0,0,0,-80
2092,"Ralph Green","MO","38.787579999999998","-94.277688999999995",0,0,0,0,0,0,8132
2094,"Sibley","MO","39.178319000000002","-94.184444999999997",0,0,1503944.84,0,0,0,18655.12
2098,"Lake Road (MO)","MO","39.724600000000002","-94.877300000000005",0,0,123646.179,0,123646.179,0,268.643
2099,"Niangua","MO","37.938499999999998","-92.847701000000001",0,0,0,0,0,0,686
2102,"Howard Bend","MO","38.681797000000003","-90.540047999999999",0,0,0,0,0,0,22
2103,"Labadie","MO","38.562244","-90.837686000000005",0,0,15183698.224,0,0,0,0
2104,"Meramec","MO","38.401699999999998","-90.335800000000006",0,0,5042284.958,0,0,0,313
2106,"Osage Dam","MO","38.2044","-92.623900000000006",0,0,0,0,0,0,232190
2107,"Sioux","MO","38.915478999999998","-90.290246999999994",0,0,4960798,0,0,0,3497.008
2108,"Taum Sauk","MO","37.520833000000003","-90.834721999999999",0,0,0,0,0,0,-135904
2113,"Albany","MO","40.247799999999998","-94.330299999999994",0,0,0,0,0,0,0
2115,"Butler","MO","38.264408000000003","-94.344385000000003",0,0,0,0,0,0,37.24
2121,"Carthage","MO","37.165300000000002","-94.308899999999994",0,0,0,0,0,0,-624
2122,"Chillicothe","MO","39.783388000000002","-93.564111999999994",0,0,0,0,0,0,394
2123,"Columbia (MO)","MO","38.964646000000002","-92.316767999999996",0,0,0,0,0,0,70845.68
2124,"Stockton Hydro","MO","37.693600000000004","-93.769099999999995",0,0,0,0,0,0,5958
2126,"Fulton (MO)","MO","38.868094999999997","-91.947779999999995",0,0,0,0,0,0,448
2127,"Gallatin (MO)","MO","39.914400000000001","-93.9619",0,0,0,0,0,0,8
2131,"Higginsville","MO","39.073315000000001","-93.714748",0,0,0,0,0,0,185
2132,"Blue Valley","MO","39.091900000000003","-94.326099999999997",0,0,0,0,52487,0,0
2134,"Jackson Square","MO","39.094574000000001","-94.411522000000005",0,0,0,0,0,0,78
2135,"Station H","MO","39.106699999999996","-94.380399999999995",0,0,0,0,0,0,2228
2136,"Station I","MO","39.055954","-94.392956999999996",0,0,0,0,0,0,105
2137,"Jackson (MO)","MO","37.384700000000002","-89.660600000000002",0,0,0,0,0,0,132
2138,"Kahoka","MO","40.422499999999999","-91.720600000000005",0,0,0,0,0,0,1
2139,"Kennett","MO","36.243099999999998","-90.049499999999995",0,0,0,0,0,0,1322
2140,"La Plata","MO","40.0122","-92.507499999999993",0,0,0,0,0,0,4
2141,"Macon","MO","39.7378","-92.468900000000005",0,0,0,0,0,0,0
2142,"Malden","MO","36.553100000000001","-89.968199999999996",0,0,0,0,0,0,30
2144,"Marshall (MO)","MO","39.122799999999998","-93.206400000000002",0,0,0,0,0,0,152
2145,"Memphis","MO","40.375","-92.125",0,0,0,0,0,0,22
2146,"Monroe (MO)","MO","39.652500000000003","-91.799400000000006",0,0,0,0,0,0,0
2148,"Odessa","MO","38.997852000000002","-93.965655999999996",0,0,0,0,0,0,0
2150,"Palmyra Municipal","MO","39.796100000000003","-91.555599999999998",0,0,0,0,0,0,0
2161,"James River Power Station","MO","37.108611000000003","-93.261944",0,0,677255.004,0,0,0,36478
2164,"Unionville City of","MO","40.476742000000002","-93.010018000000002",0,0,0,0,0,0,4
2165,"Vandalia","MO","39.203600000000002","-91.861000000000004",0,0,0,0,0,0,0
2166,"Table Rock","MO","36.597000000000001","-93.308599999999998",0,0,0,0,0,0,368917
2167,"New Madrid","MO","36.514699999999998","-89.561700000000002",0,0,8332091.028,0,0,0,0
2168,"Thomas Hill","MO","39.552199999999999","-92.638099999999994",0,0,7945918.039,0,0,0,0
2171,"Missouri City","MO","39.231534000000003","-94.307979000000003",0,0,0,0,0,0,0
2176,"Glendive GT","MT","47.053899999999999","-104.74",0,0,0,0,0,0,1911
2177,"Miles City GT","MT","46.411200000000001","-105.7953",0,0,0,0,0,0,365
2181,"Black Eagle","MT","47.521331000000004","-111.261442",0,0,0,0,0,0,120985
2182,"Cochrane","MT","47.537500000000001","-111.194969",0,0,0,0,0,0,244510
2185,"Hauser","MT","46.765940999999998","-111.88734100000001",0,0,0,0,0,0,111830
2186,"Holter","MT","46.991500000000002","-112.0047",0,0,0,0,0,0,249642
2187,"J E Corette Plant","MT","45.775620000000004","-108.480999",0,0,580510.997,0,0,0,0
2188,"Kerr","MT","47.677700000000002","-114.23390000000001",0,0,0,0,0,0,1159340
2191,"Morony","MT","47.581736999999997","-111.06089799999999",0,0,0,0,0,0,254979
2192,"Mystic","MT","45.225740999999999","-109.762489",0,0,0,0,0,0,57106
2193,"Rainbow (MT)","MT","47.534399999999998","-111.2045",0,0,0,0,0,0,367241
2194,"Ryan","MT","47.569938999999998","-111.122546",0,0,0,0,0,0,468992
2195,"Thompson Falls","MT","47.593155000000003","-115.358237",0,0,0,0,0,0,529751
2196,"Old Faithful","WY","44.453299999999999","-110.8347",0,0,0,0,0,0,124
2199,"Noxon Rapids","MT","47.953888999999997","-115.733611",0,0,0,0,0,0,1968070
2203,"Hungry Horse","MT","48.341521","-114.01443",0,0,0,0,0,0,1004871
2204,"Yellowtail","MT","45.307406","-107.957515",0,0,0,0,0,0,1095850
2214,"Ansley","NE","41.352800000000002","-99.497799999999998",0,0,0,0,0,0,8
2215,"Auburn","NE","40.388300000000001","-95.846400000000003",0,0,0,0,0,0,232
2216,"Arnold","NE","41.423889000000003","-100.19416699999999",0,0,0,0,0,0,2
2217,"Beaver City","NE","40.138100000000001","-99.827200000000005",0,0,0,0,0,0,20
2221,"Broken Bow","NE","41.403100000000002","-99.639200000000002",0,0,0,0,0,0,137
2222,"Burwell","NE","41.914400000000001","-98.990600000000001",0,0,0,0,0,0,26
2223,"Cambridge","NE","40.226700000000001","-100.1358",0,0,0,0,0,0,39
2225,"Campbell Village","NE","40.371699999999997","-98.723600000000005",0,0,0,0,0,0,0
2226,"Canaday","NE","40.694200000000002","-99.701099999999997",0,0,3231,0,0,0,0
2227,"Jeffrey","NE","40.959404999999997","-100.39790499999999",0,0,0,0,0,0,96153
2228,"Johnson 1","NE","40.693600000000004","-99.817800000000005",0,0,0,0,0,0,65159
2229,"Johnson 2","NE","40.683900000000001","-99.744699999999995",0,0,0,0,0,0,81809
2230,"Chappell","NE","41.105600000000003","-102.47029999999999",0,0,0,0,0,0,6
2231,"Crete","NE","40.625300000000003","-96.955799999999996",0,0,0,0,0,0,91
2232,"Curtis","NE","40.6325","-100.51472200000001",0,0,0,0,0,0,6
2233,"David City","NE","41.254652","-97.119202000000001",0,0,0,0,0,0,136
2234,"Deshler","NE","40.140799999999999","-97.7239",0,0,0,0,0,0,0
2235,"Emerson","NE","42.276400000000002","-96.728899999999996",0,0,0,0,0,0,25
2236,"Fairbury","NE","40.133871999999997","-97.184286",0,0,0,0,0,0,103
2237,"Falls City","NE","40.055","-95.6083",0,0,0,0,0,0,386
2238,"Franklin (NE)","NE","40.095300000000002","-98.954400000000007",0,0,0,0,0,0,97
2240,"Lon Wright","NE","41.428100000000001","-96.462299999999999",0,0,237241.998,0,237241.998,0,-617
2241,"C W Burdick","NE","40.922800000000002","-98.326899999999995",0,0,0,0,0,0,-1471
2243,"Don Henry","NE","40.583154999999998","-98.420055000000005",0,0,0,0,0,0,-37
2244,"North Denver","NE","40.598838999999998","-98.388630000000006",0,0,0,0,0,0,-931
2249,"Laurel","NE","42.430539000000003","-97.090813999999995",0,0,0,0,0,0,2
2250,"J Street","NE","40.807879999999997","-96.710667000000001",0,0,0,0,0,0,203
2253,"Lyons","NE","41.9375","-96.473100000000002",0,0,0,0,0,0,0
2255,"Nebraska City # 1","NE","40.680599999999998","-95.847499999999997",0,0,0,0,0,0,-941
2256,"Syracuse # 2","NE","40.675600000000003","-96.177778000000004",0,0,0,0,0,0,-389
2260,"Columbus","NE","41.463900000000002","-97.328299999999999",0,0,0,0,0,0,132105
2265,"Hallam","NE","40.558900000000001","-96.784700000000001",0,0,0,0,0,0,5392
2266,"Hebron","NE","40.187927999999999","-97.577856999999995",0,0,0,0,0,0,654
2268,"Kearney","NE","40.703510999999999","-99.100752999999997",0,0,0,0,0,0,230
2271,"McCook","NE","40.221400000000003","-100.6508",0,0,0,0,0,0,713
2273,"Monroe (NE)","NE","41.487200000000001","-97.607799999999997",0,0,0,0,0,0,26198
2274,"North Platte","NE","41.086399999999998","-100.7594",0,0,0,0,0,0,50689
2277,"Sheldon","NE","40.558900000000001","-96.784700000000001",0,0,0,0,1259591.991,0,0
2278,"Spencer Hydro","NE","42.809336999999999","-98.656283000000002",0,0,0,0,0,0,12646
2289,"Fort Calhoun","NE","41.520522","-96.077511000000001",0,0,4184503,0,0,0,0
2290,"Jones Street","NE","41.251488000000002","-95.922681999999995",0,0,0,0,0,0,294
2291,"North Omaha","NE","41.329090000000001","-95.944659999999999",0,0,3060377.049,0,0,0,0
2292,"Sarpy County","NE","41.170594000000001","-95.970602999999997",0,0,0,0,0,0,34804
2294,"Ord","NE","41.602499999999999","-98.928299999999993",0,0,0,0,0,0,321
2295,"Oxford (NE)","NE","40.258099999999999","-99.610799999999998",0,0,0,0,0,0,66
2296,"Pender","NE","42.090299999999999","-96.776899999999998",0,0,0,0,0,0,19
2297,"Plainview Muncipal Power","NE","42.35","-97.790555999999995",0,0,0,0,0,0,24
2299,"Red Cloud","NE","40.096400000000003","-98.522800000000004",0,0,0,0,0,0,60
2300,"Sargent","NE","41.639200000000002","-99.374200000000002",0,0,0,0,0,0,6
2302,"Sidney (NE)","NE","41.145634000000001","-102.977836",0,0,0,0,0,0,1
2303,"Spalding","NE","41.681379999999997","-98.367559999999997",0,0,0,0,0,0,688
2305,"Stuart (NE)","NE","42.571399999999997","-99.139399999999995",0,0,0,0,0,0,10
2308,"Tecumseh","NE","40.366399999999999","-96.19",0,0,0,0,0,0,300
2310,"Wahoo","NE","41.2089","-96.621700000000004",0,0,0,0,0,0,190
2311,"Wakefield","NE","42.264400000000002","-96.875600000000006",0,0,0,0,0,0,69
2312,"Wayne IC","NE","42.227800000000002","-97.018299999999996",0,0,0,0,0,0,341
2313,"West Point Municipal","NE","41.8292","-96.716099999999997",0,0,0,0,0,0,56
2315,"Wilber","NE","40.479700000000001","-96.960400000000007",0,0,0,0,0,0,55
2316,"Wisner","NE","41.990299999999998","-96.920299999999997",0,0,0,0,0,0,12
2322,"Clark (NVE)","NV","36.087499999999999","-115.05070000000001",0,0,0,0,389013,0,129474
2324,"Reid Gardner","NV","36.657347000000001","-114.633263",0,0,0,0,2400950.039,0,0
2330,"Fort Churchill","NV","39.128100000000003","-119.1322",0,0,0,174754,0,0,0
2336,"Tracy","NV","39.5625","-119.52500000000001",2577020.66666667,0,0,1398740.33333333,0,0,15710
2349,"Comerford","NH","44.325052999999997","-72.000974999999997",0,0,0,0,0,0,353812
2351,"S C Moore","NH","44.335599999999999","-71.874200000000002",0,0,0,0,0,0,280850
2352,"Vernon Dam","VT","42.771650000000001","-72.514600000000002",0,0,0,0,0,0,161162
2353,"Wilder","VT","43.667926999999999","-72.303641999999996",0,0,0,0,0,0,149245
2354,"Amoskeag","NH","43.002229999999997","-71.472080000000005",0,0,0,0,0,0,72084
2355,"Ayers Island","NH","43.597848999999997","-71.717682999999994",0,0,0,0,0,0,43686
2356,"Eastman Falls","NH","43.447218999999997","-71.657899999999998",0,0,0,0,0,0,25861
2357,"Garvins Falls","NH","43.165523999999998","-71.509440999999995",0,0,0,0,0,0,41595
2358,"Gorham","NH","44.408278000000003","-71.195353999999995",0,0,0,0,0,0,12262
2359,"Hooksett","NH","43.101699000000004","-71.465661999999995",0,0,0,0,0,0,7884
2360,"Jackman","NH","43.110550000000003","-71.948890000000006",0,0,0,0,0,0,10358
2362,"Lost Nation","NH","44.595117000000002","-71.494398000000004",0,0,0,0,0,0,1073
2364,"Merrimack","NH","43.141100000000002","-71.469200000000001",0,0,0,1150061.969,0,0,2788
2367,"Schiller","NH","43.097799999999999","-70.784199999999998",0,0,496918.255,0,0,0,3355.748
2368,"Smith (NH)","NH","44.469462999999998","-71.178061999999997",0,0,0,0,0,0,87619
2369,"White Lake","NH","43.847799999999999","-71.206900000000005",0,0,0,0,0,0,1311
2378,"B L England","NJ","39.290799999999997","-74.636399999999995",0,0,112569.3675,0,112569.3675,0,15486.265
2379,"Carlls Corner","NJ","39.454700000000003","-75.201400000000007",0,0,0,0,0,0,26325
2380,"Cedar Station","NJ","39.689300000000003","-74.261799999999994",0,0,0,0,0,0,2551
2382,"Middle Station","NJ","39.026899999999998","-74.877200000000002",0,0,0,0,0,0,2363
2383,"Missouri Avenue","NJ","39.366199999999999","-74.444100000000006",0,0,0,0,0,0,2098
2384,"Deepwater","NJ","39.683100000000003","-75.508300000000006",0,0,0,0,0,0,662
2385,"Werner","NJ","40.491236000000001","-74.280989000000005",0,0,0,0,0,0,1175
2388,"Oyster Creek","NJ","39.814300000000003","-74.206199999999995",0,0,4850907,0,0,0,0
2390,"Sayreville","NJ","40.476525000000002","-74.352335999999994",0,0,0,0,0,0,1673
2393,"Gilbert","NJ","40.565832999999998","-75.163888999999998",0,0,0,0,42143.184,0,24175.816
2398,"Bergen Generating Station","NJ","40.837499999999999","-74.0244",0,0,0,0,0,0,5826523.982
2399,"PSEG Burlington Generating Station","NJ","40.076611","-74.879171999999997",0,0,0,0,0,0,114678
2400,"PSEG Edison Generating Station","NJ","40.491100000000003","-74.395600000000002",0,0,0,0,0,0,39883
2401,"PSEG Essex Generating Station","NJ","40.737200000000001","-74.120599999999996",0,0,0,0,0,0,73326
2403,"PSEG Hudson Generating Station","NJ","40.747799999999998","-74.072199999999995",0,0,1060444,0,0,0,0
2404,"PSEG Kearny Generating Station","NJ","40.737282999999998","-74.096463999999997",0,0,0,0,0,0,581499.996
2406,"PSEG Linden Generating Station","NJ","40.621699999999997","-74.2072",0,0,0,0,0,0,5540305.907
2408,"PSEG Mercer Generating Station","NJ","40.179200000000002","-74.733900000000006",0,0,419957.001,0,0,0,-171
2409,"PSEG National Park Generating Station","NJ","39.86","-75.185299999999998",0,0,0,0,0,0,47
2410,"PSEG Salem Generating Station","NJ","39.462499999999999","-75.535799999999995",0,0,16282398,0,0,0,737
2411,"PSEG Sewaren Generating Station","NJ","40.555799999999998","-74.246899999999997",0,0,34182,0,0,0,493
2434,"Howard Down","NJ","39.488900000000001","-75.034700000000001",0,0,0,0,0,0,76431
2442,"Four Corners","NM","36.69","-108.48139999999999",0,0,0,8729343.982,0,0,0
2444,"Rio Grande","NM","31.8047","-106.5472",0,0,0,0,770001,0,195504
2446,"Maddox","NM","32.714224000000002","-103.301469",0,0,0,0,392254,0,26983
2450,"Reeves","NM","35.170999999999999","-106.6019",0,0,0,0,72579,0,0
2451,"San Juan","NM","36.800600000000003","-108.43859999999999",0,0,0,0,10360010.125,0,0
2453,"Carlsbad","NM","32.417999999999999","-104.21556",0,0,0,0,0,0,272
2454,"Cunningham","NM","32.713099999999997","-103.3533",0,0,0,0,0,0,1054420
2465,"Animas","NM","36.725138000000001","-108.19202",0,0,0,0,0,0,137532
2480,"Danskammer Generating Station","NY","41.571247","-73.974981",0,0,0,0,0,0,0
2481,"Dashville","NY","41.8217","-74.049700000000001",0,0,0,0,0,0,12193
2483,"Neversink","NY","41.819400000000002","-74.635800000000003",0,0,0,0,0,0,41329
2485,"South Cairo","NY","42.291274999999999","-73.986452",0,0,0,0,0,0,97
2486,"Sturgeon","NY","41.848191","-74.046678",0,0,0,0,0,0,27549
2487,"West Coxsackie","NY","42.343499999999999","-73.835300000000004",0,0,0,0,0,0,309
2490,"Arthur Kill Generating Station","NY","40.591563999999998","-74.200035",0,0,1097793,0,0,0,256
2493,"East River","NY","40.728099999999998","-73.974199999999996",0,0,537362.002,0,0,0,2216629.042
2494,"Gowanus Gas Turbines Generating","NY","40.663499999999999","-74.005099999999999",0,0,0,0,0,0,10310
2496,"Hudson Avenue","NY","40.705199999999998","-73.980699999999999",0,0,0,0,0,0,1112
2497,"Indian Point 2","NY","41.270555999999999","-73.952699999999993",0,0,8330556,0,0,0,0
2499,"Narrows Gas Turbines Generating","NY","40.648611000000002","-74.020832999999996",0,0,0,0,0,0,25190
2500,"Ravenswood","NY","40.759166999999998","-73.946111000000002",1507913.89,0,3061091.5,0,0,0,201421.68
2503,"59th Street","NY","40.771284999999999","-73.991150000000005",0,0,0,0,0,0,293
2504,"74th Street","NY","40.768000000000001","-73.951499999999996",0,0,0,0,0,0,694
2511,"E F Barrett","NY","40.616689000000001","-73.647880999999998",0,0,1428220.985,0,0,0,90753
