"Plant.Code","Plant.Name","State","Latitude","Longitude","total.wc"
2,"Bankhead Dam","AL","33.458665000000003","-87.356823000000006",0
3,"Barry","AL","31.006900000000002","-88.010300000000001",2095846881.46228
4,"Walter Bouldin Dam","AL","32.583888999999999","-86.283056000000002",0
7,"Gadsden","AL","34.012799999999999","-85.970799999999997",153201295.110019
8,"Gorgas","AL","33.644343999999997","-87.196485999999993",2603455035.05436
9,"Copper","TX","31.756900000000002","-106.375",5824950.95801226
10,"Greene County","AL","32.601700000000001","-87.781099999999995",1477071072.68161
11,"H Neely Henry Dam","AL","33.784500000000001","-86.052400000000006",0
12,"Holt Dam","AL","33.255299999999998","-87.4495",0
13,"Jordan Dam","AL","32.618899999999996","-86.254800000000003",0
14,"Logan Martin Dam","AL","33.425877999999997","-86.337547000000001",0
15,"Lay Dam","AL","32.963299999999997","-86.518699999999995",0
16,"Martin Dam","AL","32.680394","-85.911441999999994",0
17,"Mitchell Dam","AL","32.806024999999998","-86.444891999999996",0
18,"Lewis Smith Dam","AL","33.940600000000003","-87.107699999999994",0
19,"Thurlow Dam","AL","32.535435999999997","-85.887613999999999",0
20,"Weiss Dam","AL","34.172142000000001","-85.753805999999997",0
21,"Yates Dam","AL","32.574300000000001","-85.890100000000004",0
26,"E C Gaston","AL","33.244211","-86.458055999999999",2667598428.36873
30,"Madelia","MN","44.052500000000002","-94.415300000000002",25564.4421039525
34,"Rollins","CA","39.134259","-120.95334099999999",0
38,"Millers Ferry","AL","32.100881000000001","-87.399766999999997",0
46,"Browns Ferry","AL","34.7042","-87.118899999999996",564468133.710481
47,"Colbert","AL","34.743899999999996","-87.848600000000005",731540873.59219
48,"Guntersville","AL","34.421272000000002","-86.393930999999995",0
49,"Wheeler Dam","AL","34.806899999999999","-87.381900000000002",0
50,"Widows Creek","AL","34.883021999999997","-85.755252999999996",1765162669.26281
51,"Dolet Hills","LA","32.030555999999997","-93.569166999999993",1174351967.47841
53,"Gantt","AL","31.403300000000002","-86.479468999999995",0
54,"J K Smith","KY","37.883299999999998","-84.101699999999994",51526045.2647972
55,"Point A","AL","31.361146000000002","-86.518306999999993",0
56,"Charles R Lowman","AL","31.488019000000001","-87.910747000000001",2358243.39631441
59,"Platte","NE","40.854765","-98.348222000000007",64915288.0403937
60,"Whelan Energy Center","NE","40.580871999999999","-98.312437000000003",172818088.5095
62,"Annex Creek","AK","58.317599999999999","-134.101",0
63,"Gold Creek","AK","58.310699999999997","-134.41739999999999",5805.47091603702
64,"Lemon Creek","AK","58.3536","-134.49529999999999",61823.1727374469
65,"Salmon Creek 1","AK","58.326900000000002","-134.4631",0
66,"Skagway","AK","59.454500000000003","-135.31309999999999",14360.9017396705
69,"Haines","AK","59.235799999999998","-135.44499999999999",54744.5722345597
70,"Swan Lake","AK","55.613892","-131.35417000000001",0
71,"Terror Lake","AK","57.686100000000003","-152.89500000000001",0
72,"Venice Hydro","CA","34.01135","-118.41679999999999",0
75,"Anchorage 1","AK","61.222099999999998","-149.86609999999999",3886214.06306161
77,"Eklutna Hydro Project","AK","61.475211000000002","-149.15009000000001",0
78,"Snettisham","AK","58.141500000000001","-133.73699999999999",0
79,"Aurora Energy LLC Chena","AK","64.847742999999994","-147.735063",0
84,"Ketchikan","AK","55.344641000000003","-131.63342499999999",0
85,"S W Bailey","AK","55.363300000000002","-131.67779999999999",418910.559257198
87,"Escalante","NM","35.415900000000001","-108.08199999999999",292267867.053949
88,"Ashokan","NY","41.948999999999998","-74.206299999999999",0
90,"Snake River","AK","64.505923999999993","-165.429384",6890279.17440036
91,"Petersburg","AK","56.811039999999998","-132.95709099999999",196443.89525099
92,"Seward (AK)","AK","60.1083","-149.4417",28900.0416215001
93,"Riley#03a","AK","57.051600000000001","-135.22970000000001",0
95,"Wrangell","AK","56.452199999999998","-132.3683",237184.042030197
96,"Beluga","AK","61.186100000000003","-151.03559999999999",115872759.984869
99,"Frederickson","WA","47.079721999999997","-122.36499999999999",4202573.34926962
100,"South Consolidated","AZ","33.466476999999998","-111.781064",0
104,"J S Eastwood","CA","37.147925999999998","-119.2567",0
108,"Holcomb","KS","37.930799999999998","-100.9725",219596166.598655
109,"Dillingham","AK","59.6708","-157.88999999999999",4522461.84359284
112,"Childs","AZ","34.351111000000003","-111.70055600000001",NA
113,"Cholla","AZ","34.939399999999999","-110.30329999999999",1364099448.65767
114,"Douglas","AZ","31.364121999999998","-109.5538",140960.907856057
115,"Irving","AZ","34.402222000000002","-111.617222",NA
116,"Ocotillo","AZ","33.422499999999999","-111.9122",8425484.57785552
117,"West Phoenix","AZ","33.441699999999997","-112.1583",126668486.182513
118,"Saguaro","AZ","32.551699999999997","-111.3",1707798.23431106
120,"Yucca","AZ","32.721400000000003","-114.7106",35935935.4594506
124,"Demoss Petrie","AZ","32.252273000000002","-110.992148",763624.018925397
126,"H Wilson Sundt Generating Station","AZ","32.159999999999997","-110.90470000000001",64241200.0086434
127,"Oklaunion","TX","34.082500000000003","-99.175299999999993",331617722.125455
130,"Cross","SC","33.371389000000001","-80.113332999999997",5461058953.67224
136,"Seminole (FL)","FL","29.733056000000001","-81.632778000000002",3819668289.9301
141,"Agua Fria","AZ","33.556100000000001","-112.2153",2819533.62060808
143,"Crosscut","AZ","33.439374999999998","-111.94605199999999",NA
145,"Horse Mesa","AZ","33.590699999999998","-111.34399999999999",0
147,"Kyrene","AZ","33.355600000000003","-111.9353",48003238.9709565
148,"Mormon Flat","AZ","33.553600000000003","-111.4431",0
149,"Roosevelt","AZ","33.671104","-111.16178600000001",0
150,"Stewart Mountain","AZ","33.566099999999999","-111.536",0
151,"McClure","CA","37.629359999999998","-120.93138999999999",945120.314828941
152,"Davis Dam","AZ","35.197043999999998","-114.570669",0
153,"Glen Canyon Dam","AZ","36.936613999999999","-111.48387200000001",0
154,"Hoover Dam (NV)","NV","36.015509999999999","-114.738006",0
159,"Lake Creek Dam","UT","40.493631000000001","-111.312506",0
160,"Apache Station","AZ","32.060299999999998","-109.8931",461047794.750109
161,"Turlock Lake","CA","37.611460999999998","-120.594678",0
162,"Hickman","CA","37.621535999999999","-120.746247",0
164,"Big Pine","FL","24.579167000000002","-81.685000000000002",NA
165,"GREC","OK","36.190277999999999","-95.289400000000001",549753352.99397
166,"Carpenter","AR","34.442500000000003","-93.026200000000003",0
167,"Cecil Lynch","AR","34.753500000000003","-92.198700000000002",0
168,"Hamilton Moses","AR","34.980600000000003","-90.872200000000007",NA
169,"Harvey Couch","AR","33.359200000000001","-93.4649",0
170,"Lake Catherine","AR","34.434100000000001","-92.904899999999998",9156117.73605283
171,"Mabelvale","AR","34.635997000000003","-92.409602000000007",69250.4147136665
172,"Osceola (AR)","AR","35.697499999999998","-90.005300000000005",0
173,"Robert E Ritchie","AR","34.462899999999998","-90.598699999999994",NA
174,"Remmel","AR","34.427199999999999","-92.894099999999995",0
180,"Volta 2","CA","40.451929999999997","-121.86215",0
182,"Beaver Dam","AR","36.421506999999998","-93.847373000000005",0
187,"Degray","AR","34.211913000000003","-93.110962999999998",0
188,"Greers Ferry Lake","AR","35.520699999999998","-91.9953",0
192,"Paragould","AR","36.060555999999998","-90.521388999999999",NA
193,"Municipal Light","AR","36.385800000000003","-90.186700000000002",0
195,"Narrows (AR)","AR","34.148426999999998","-93.715168000000006",0
196,"Norfork","AR","36.249099999999999","-92.240099999999998",0
197,"Blakely Mountain","AR","34.570984000000003","-93.194424999999995",0
198,"Bull Shoals","AR","36.363500000000002","-92.576300000000003",0
199,"Dardanelle","AR","35.250300000000003","-93.168599999999998",0
201,"Thomas Fitzhugh","AR","35.462381999999998","-93.804925999999995",2206717.93982967
202,"Carl Bailey","AR","35.260102000000003","-91.363426000000004",383972.171585322
203,"McClellan (AR)","AR","33.564799999999998","-92.791700000000006",13068729.5049391
204,"Clinton Power Station","IL","40.171900000000001","-88.8339",191511495.106468
207,"St Johns River Power Park","FL","30.430800000000001","-81.550799999999995",1129972463.499
210,"Wolf Creek Generating Station","KS","38.239260000000002","-95.689779999999999",180902324.590446
214,"Alta Powerhouse","CA","39.215978999999997","-120.80355",0
215,"Angels","CA","38.071944000000002","-120.539444",0
217,"Balch 1","CA","36.909137000000001","-119.087712",0
218,"Balch 2","CA","36.908906999999999","-119.08755600000001",0
219,"Belden","CA","40.007444999999997","-121.249438",0
220,"Bucks Creek","CA","39.910620000000002","-121.327692",0
221,"Butt Valley","CA","40.175655999999996","-121.190663",0
222,"Caribou 1","CA","40.085476","-121.148241",0
223,"Caribou 2","CA","40.085996999999999","-121.149373",0
224,"Centerville PH","CA","39.788876999999999","-121.657383",NA
225,"Chili Bar","CA","38.771763999999997","-120.813239",0
226,"Coal Canyon","CA","39.605043000000002","-121.600525",NA
227,"Coleman PH","CA","40.404645000000002","-122.121904",0
228,"Contra Costa","CA","38.019199999999998","-121.7642",NA
229,"Cow Creek","CA","40.570816999999998","-122.02093000000001",0
231,"Cresta","CA","39.825907000000001","-121.40968700000001",0
232,"De Sabla","CA","39.869264999999999","-121.63181899999999",0
233,"Deer Creek PH","CA","39.298070000000003","-120.8443",0
235,"Drum 1","CA","39.256872999999999","-120.767437",0
236,"Drum 2","CA","39.257387999999999","-120.76704599999999",0
237,"Dutch Flat","CA","39.216985000000001","-120.835587",0
238,"El Dorado","CA","38.793574","-120.619152",0
239,"Electra","CA","38.330984999999998","-120.669901",0
240,"Haas","CA","36.927424000000002","-119.02025",0
241,"Halsey","CA","38.956985000000003","-121.041932",0
242,"Hamilton Branch","CA","40.268712000000001","-121.089479",0
243,"Hat Creek 1","CA","40.929296999999998","-121.544462",0
244,"Hat Creek 2","CA","40.960675000000002","-121.54865700000001",0
246,"Humboldt Bay","CA","40.741500000000002","-124.2103",28617555.8406175
247,"Hunters Point","CA","37.733611000000003","-122.38972200000001",NA
248,"Inskip","CA","40.400987999999998","-121.965502",0
249,"James B Black","CA","40.992294999999999","-121.975182",0
250,"Kerckhoff","CA","37.092486000000001","-119.552826",0
253,"Kilarc","CA","40.677827000000001","-121.87325300000001",0
254,"Kings River PH","CA","36.888165999999998","-119.158777",0
255,"Lime Saddle","CA","39.698754999999998","-121.57096",0
258,"Merced Falls","CA","37.523009999999999","-120.329905",0
259,"Dynegy Morro Bay LLC","CA","35.372166999999997","-120.856562",0
260,"Dynegy Moss Landing Power Plant","CA","36.804836999999999","-121.782241",269379936.028249
261,"Murphys","CA","38.147092999999998","-120.44639599999999",0
262,"Narrows PH","CA","39.236400000000003","-121.27174100000001",0
264,"Phoenix","CA","38.032102999999999","-120.326537",0
265,"Pit 1","CA","40.990839999999999","-121.498243",0
266,"Pit 3","CA","40.997447999999999","-121.74813899999999",0
267,"Pit 4","CA","40.986361000000002","-121.84944",0
268,"Pit 5","CA","40.986196999999997","-121.977594",0
269,"Pit 6","CA","40.922567999999998","-121.992906",0
270,"Pit 7","CA","40.847462","-121.990798",0
271,"Pittsburg Power","CA","38.039167999999997","-121.894469",9455427.65301856
272,"Poe","CA","39.722892000000002","-121.469814",0
274,"Potter Valley","CA","39.361786000000002","-123.127934",0
275,"Rock Creek","CA","39.905209999999997","-121.345226",0
276,"San Joaquin 2","CA","37.203232999999997","-119.497508",0
277,"San Joaquin 3","CA","37.253717999999999","-119.519352",0
279,"Salt Springs","CA","38.497914000000002","-120.21811",0
280,"South","CA","40.395395999999998","-121.879186",0
281,"Spaulding 1","CA","39.324612999999999","-120.644807",0
282,"Spaulding 2","CA","39.324592000000003","-120.645375",0
283,"Spaulding 3","CA","39.337679000000001","-120.63546700000001",0
284,"Spring Gap","CA","38.186529999999998","-120.11168000000001",0
285,"Stanislaus","CA","38.139048000000003","-120.37032499999999",0
286,"Geysers Unit 5-20","CA","38.777000000000001","-122.745",33685550255.0387
287,"Tiger Creek","CA","38.449291000000002","-120.492645",0
289,"Tule River","CA","36.163075999999997","-118.707104",0
290,"Volta 1","CA","40.459111","-121.86708",0
291,"West Point PH","CA","38.420898000000001","-120.549572",0
292,"Wise","CA","38.889862000000001","-121.098525",0
293,"A G Wishon","CA","37.151049999999998","-119.504724",0
294,"Copco 1","CA","41.978914000000003","-122.335317",0
295,"Copco 2","CA","41.975715999999998","-122.358127",0
296,"Fall Creek","CA","41.985605","-122.360455",0
297,"Iron Gate","CA","41.932980999999998","-122.43678",0
298,"Limestone","TX","31.421900000000001","-96.252499999999998",2926595326.20748
299,"Blundell","UT","38.488900000000001","-112.8533",2017418659.91363
300,"Division","CA","32.681666999999997","-117.120277",NA
301,"El Cajon","CA","32.7958","-116.9722",166578.46463609
302,"Encina","CA","33.136099999999999","-117.3364",63546960.5759921
303,"Kearny","CA","32.834000000000003","-117.13379999999999",3448137.54440722
305,"Miramar","CA","32.876100000000001","-117.1664",817730.936853964
306,"Naval Station","CA","32.681666999999997","-117.120277",NA
307,"North Island","CA","32.704999999999998","-117.19027699999999",NA
309,"Silver Gate","CA","32.697221999999996","-117.114722",NA
312,"Refuse & Coal","OH","39.902222000000002","-83.024444000000003",NA
313,"Green Lake","AK","56.986283999999998","-135.12275",0
314,"Drop 5","CA","32.673096999999999","-115.392026",0
315,"AES Alamitos LLC","CA","33.768799999999999","-118.1009",139679929.100228
316,"Sepulveda Canyon","CA","34.096899999999998","-118.4795",0
317,"Big Creek 1","CA","37.2042","-119.2396",0
318,"Big Creek 2","CA","37.200000000000003","-119.3069",0
319,"Big Creek 3","CA","37.148516999999998","-119.386623",0
320,"Big Creek 4","CA","37.139000000000003","-119.4898",0
321,"Big Creek 8","CA","37.209600000000002","-119.3289",0
322,"Big Creek 2A","CA","37.200062000000003","-119.30681",0
323,"Bishop Creek 2","CA","37.273581","-118.573339",0
324,"Bishop Creek 3","CA","37.301962000000003","-118.53195700000001",0
325,"Bishop Creek 4","CA","37.323034999999997","-118.50171400000001",0
326,"Bishop Creek 5","CA","37.334400000000002","-118.47969999999999",0
327,"Bishop Creek 6","CA","37.349899999999998","-118.4628",0
328,"Borel","CA","35.588068999999997","-118.524804",0
329,"Coolwater","CA","34.860599999999998","-116.8539",26935862.0639685
330,"El Segundo Power","CA","33.909804000000001","-118.424172",18190246.6893796
331,"Etiwanda Generating Station","CA","34.091180000000001","-117.52663",24566293.9146256
332,"Fontana","CA","34.155161999999997","-117.397119",0
335,"AES Huntington Beach LLC","CA","33.643900000000002","-117.97920000000001",86205898.4221215
336,"Kaweah 2","CA","36.461326","-118.87988",0
337,"Kaweah 1","CA","36.465066","-118.86202299999999",0
338,"Kaweah 3","CA","36.486058999999997","-118.835645",0
339,"Kern River 3","CA","35.776184999999998","-118.436233",0
340,"Kern River 1","CA","35.460303000000003","-118.77959",0
341,"Long Beach Generation LLC","CA","33.764099999999999","-118.2248",3035801.50495093
342,"Lundy","CA","38.042729000000001","-119.172015",0
344,"Mammoth Pool","CA","37.220301999999997","-119.33798299999999",0
345,"Mandalay","CA","34.206699999999998","-119.25109999999999",14806905.0638804
350,"Ormond Beach","CA","34.129199999999997","-119.16889999999999",22313723.3659615
353,"Poole","CA","37.944237000000001","-119.2161",0
354,"Portal","CA","37.257044999999998","-119.158936",0
356,"AES Redondo Beach LLC","CA","33.8504","-118.395",27889320.9513346
357,"Rush Creek","CA","37.766953999999998","-119.123284",0
358,"Mountainview Generating Station","CA","34.081800000000001","-117.2418",411949687.9757
360,"San Onofre Nuclear Generating Station","CA","33.368794000000001","-117.55491600000001",NA
361,"Santa Ana 1","CA","34.145220000000002","-117.058481",0
363,"Santa Ana 3","CA","34.107244999999999","-117.099091",0
365,"Lower Tule River","CA","36.135680000000001","-118.78886799999999",0
371,"Columbia Generating Station","WA","46.4711","-119.3339",200496483.908151
375,"Magnolia","CA","34.178055999999998","-118.315556",NA
376,"Pardee","CA","38.256900000000002","-120.8507",0
377,"Grayson","CA","34.1556","-118.2782",11174201.1209713
378,"Prairie River","MN","47.287205999999998","-93.498266000000001",0
380,"Dion R Holm","CA","37.896648999999996","-119.9675",0
381,"Moccasin","CA","37.809387999999998","-120.299254",0
382,"R C Kirkwood","CA","37.877667000000002","-119.953233",0
383,"Brawley","CA","32.968888999999997","-115.53444399999999",NA
384,"Joliet 29","IL","41.494636","-88.123827000000006",295809125.760874
385,"Drop 2 (CA)","CA","32.705435000000001","-115.030975",0
386,"Drop 3 (CA)","CA","32.705427999999998","-115.126103",0
387,"Drop 4","CA","32.705340999999997","-115.219067",0
388,"Pilot Knob","CA","32.736642000000003","-114.713858",0
389,"El Centro","CA","32.802222","-115.54",88896431.7782804
390,"Solomon Gulch","AK","61.082799999999999","-146.30330000000001",0
391,"Big Pine Creek","CA","37.142795","-118.32407499999999",0
392,"Castaic","CA","34.587237000000002","-118.656638",0
393,"Control Gorge","CA","37.437921000000003","-118.556988",0
394,"Cottonwood","CA","36.443421000000001","-118.04389",0
396,"Foothill","CA","34.318247999999997","-118.494449",0
397,"Franklin (CA)","CA","34.103931000000003","-118.413377",0
398,"Haiwee","CA","36.109721999999998","-117.956667",0
399,"Harbor","CA","33.785600000000002","-118.26439999999999",10676415.6870743
400,"Haynes","CA","33.764741000000001","-118.09913",220114026.391802
401,"Middle Gorge","CA","37.51","-118.56916699999999",0
402,"Pleasant Valley Hydro","CA","37.414160000000003","-118.523889",0
403,"San Fernando","CA","34.260527000000003","-118.385531",0
404,"Scattergood","CA","33.918151000000002","-118.427648",110938949.696797
406,"Tok","AK","63.3367","-142.98560000000001",2201979.47082441
407,"Upper Gorge","CA","37.546036000000001","-118.590001",0
408,"Valley (CA)","CA","34.244990999999999","-118.391327",104116066.451528
409,"Exchequer","CA","37.584344999999999","-120.26859",0
410,"McSwain","CA","37.522064999999998","-120.31009",0
412,"Chicago Park","CA","39.177903000000001","-120.890856",0
413,"Dutch Flat 2","CA","39.218400000000003","-120.8352",0
414,"Beardsley","CA","38.202568999999997","-120.076983",0
415,"Donnells","CA","38.246656000000002","-120.03407199999999",0
416,"Tulloch","CA","37.876111000000002","-120.605",0
417,"Forbestown","CA","39.551012","-121.278784",0
418,"Kelly Ridge","CA","39.531784000000002","-121.491247",0
419,"Woodleaf","CA","39.553811000000003","-121.204077",0
420,"Broadway (CA)","CA","34.125399999999999","-118.148",7113319.94970661
421,"Craig (AK)","AK","55.476399999999998","-133.14830000000001",126549.080932912
422,"Glenarm","CA","34.125999999999998","-118.1494",3354941.97854547
423,"Hydaburg","AK","55.208100000000002","-132.82669999999999",16881.698321634
424,"French Meadows","CA","39.077970999999998","-120.406069",0
425,"Middle Fork","CA","39.024800999999997","-120.596383",0
426,"Oxbow (CA)","CA","39.003371999999999","-120.746651",0
427,"Ralston","CA","39.000999","-120.725053",0
428,"Parker","CA","37.477837999999998","-120.444492",0
430,"Camino","CA","38.828809999999997","-120.53708899999999",0
431,"Jaybird","CA","38.834049999999998","-120.53176000000001",0
432,"Loon Lake","CA","38.982697000000002","-120.32450300000001",0
433,"Robbs Peak","CA","38.896510999999997","-120.378292",0
435,"White Rock/Slab Creek","CA","38.765335999999998","-120.78736600000001",0
436,"Devil Canyon","CA","34.205599999999997","-117.3344",0
437,"Edward C Hyatt","CA","39.542985000000002","-121.492188",0
438,"Thermalito","CA","39.514893000000001","-121.630077",0
439,"Don Pedro","CA","37.695993999999999","-120.420152",0
440,"La Grange","CA","37.669699999999999","-120.4436",0
441,"Folsom","CA","38.70675","-121.15844300000001",0
442,"Judge F Carr","CA","40.646934000000002","-122.62697300000001",0
443,"Keswick","CA","40.611857999999998","-122.44644099999999",0
444,"Nimbus","CA","38.637349999999998","-121.220198",0
445,"Shasta","CA","40.717455000000001","-122.422274",0
446,"ONeill","CA","37.098671000000003","-121.047718",0
447,"Parker Dam","CA","34.295333999999997","-114.14022199999999",0
448,"W R Gianelli","CA","37.069200000000002","-121.0772",0
450,"Spring Creek","CA","40.628115000000001","-122.46750900000001",0
451,"Trinity","CA","40.797296000000003","-122.762553",0
454,"Colgate","CA","39.330832999999998","-121.191666",0
455,"Narrows 2","CA","39.238996","-121.270409",0
457,"Bear Valley","CA","33.166111000000001","-117.016667",0
460,"Pueblo","CO","38.2667","-104.6144",15124.7794917807
462,"W N Clark","CO","38.434399999999997","-105.25",NA
464,"Alamosa","CO","37.459400000000002","-105.8947",337197.16868504
465,"Arapahoe","CO","39.67","-105.00279999999999",0
466,"Boulder Canyon Hydro","CO","40.004725000000001","-105.33249499999999",0
467,"Cabin Creek","CO","39.655099999999997","-105.7088",0
468,"Cameo","CO","39.127777999999999","-108.326111",NA
469,"Cherokee","CO","39.807274999999997","-104.96454799999999",703128170.76997
470,"Comanche (CO)","CO","38.208100000000002","-104.57470000000001",790534616.551119
471,"Fruita","CO","39.136400000000002","-108.7347",64053.9042291874
472,"Georgetown Hydro","CO","39.691899999999997","-105.6978",0
473,"Grand Valley Project Power Plant","CO","39.101666999999999","-108.345556",0
474,"Salida","CO","38.534190000000002","-106.18200299999999",0
476,"Shoshone (CO)","CO","39.570129999999999","-107.226876",0
477,"Valmont","CO","40.019500000000001","-105.202",218252027.663814
478,"Zuni","CO","39.737347999999997","-105.016991",5608.37122519619
479,"Temescal","CA","33.834299999999999","-117.4971",0
480,"Corona","CA","33.85895","-117.61060000000001",0
481,"Perris","CA","33.836100000000002","-117.1831",0
482,"Rio Hondo","CA","34.004722000000001","-118.09917",0
483,"Coyote Creek","CA","33.924930000000003","-117.95517",0
484,"Red Mountain","CA","33.394399999999997","-117.1889",0
487,"Valley View","CA","33.900100000000002","-117.82905",0
489,"Upper Dawson","CA","37.650799999999997","-120.4706",0
491,"Center","CO","37.755000000000003","-106.1092",0
492,"Martin Drake","CO","38.824444","-104.833333",122846196.201442
493,"George Birdsall","CO","38.881388999999999","-104.81694400000001",1188294.41195306
494,"Manitou Springs","CO","38.855556","-104.93305599999999",0
495,"Ruxton Park","CO","38.841354000000003","-104.97380200000001",0
496,"Delta (CO)","CO","38.731400000000001","-108.07080000000001",5668.09849973809
502,"Holly","CO","38.055","-102.2004",1527.75550422027
504,"Julesburg","CO","40.9681","-102.2492",0
505,"Boysen","WY","43.417872000000003","-108.17754499999999",0
506,"La Junta","CO","37.984400000000001","-103.5436",4659.65428787182
507,"Las Animas","CO","38.059699999999999","-103.2206",0
508,"Lamar Plant","CO","38.033327","-102.537915",9130.07632331311
510,"Sonoma California Geothermal","CA","38.790300000000002","-122.7559",2334898237.7385
511,"Trinidad (CO)","CO","37.178978999999998","-104.487492",6360.81832459285
512,"Blue Mesa","CO","38.453190999999997","-107.33748300000001",0
513,"Estes","CO","40.376770999999998","-105.509665",0
514,"Morrow Point","CO","38.451752999999997","-107.539299",0
515,"Big Thompson","CO","40.421030999999999","-105.223804",0
516,"Green Mountain","CO","39.878805","-106.332725",0
517,"Marys Lake","CO","40.344079999999998","-105.534308",0
518,"Flatiron","CO","40.364995999999998","-105.23603199999999",0
519,"Pole Hill","CO","40.365056000000003","-105.325074",0
520,"Lower Molina","CO","39.193660000000001","-108.044088",0
521,"Upper Molina","CO","39.143808","-108.004777",0
525,"Hayden","CO","40.485599999999998","-107.185",714686840.284883
527,"Nucla","CO","38.238300000000002","-108.5069",118169986.615187
529,"Rancho Seco Solar","CA","38.340015000000001","-121.113861",NA
531,"Camp Far West","CA","39.048802000000002","-121.31696599999999",0
533,"McWilliams","AL","31.400255000000001","-86.476449000000002",214632503.561105
534,"Jones Fork","CA","38.850282999999997","-120.381883",0
535,"McClellan (CA)","CA","38.652731000000003","-121.39333600000001",429662.060290748
537,"Camanche","CA","38.226799999999997","-121.0245",0
539,"Rocky River (CT)","CT","41.582599999999999","-73.434899999999999",0
540,"Branford","CT","41.292499999999997","-72.794200000000004",228399.44788093
541,"Bulls Bridge","CT","41.659045999999996","-73.491984000000002",0
542,"Cos Cob","CT","41.0289","-73.5989",1706197.3471132
544,"Devon Station","CT","41.209797000000002","-73.108975999999998",1642129.49277099
546,"Montville Station","CT","41.428100000000001","-72.101900000000001",15422990.4619438
547,"Northfield Mountain","MA","42.610683000000002","-72.471643",0
550,"Kettle Falls Generating Station","WA","48.620336000000002","-118.111059",63655898.8634874
551,"Scotland Dam","CT","41.665100000000002","-72.122100000000003",0
552,"Shepaug","CT","41.448419999999999","-73.295321000000001",0
553,"Stevenson","CT","41.383299999999998","-73.171400000000006",0
554,"Taftville","CT","41.572499999999998","-72.0458",0
557,"Tunnel","CT","41.555425","-72.041829000000007",42038.7389577944
559,"Rainbow (CT)","CT","41.915312","-72.693616000000006",0
560,"Falls Village","CT","41.957272000000003","-73.369297000000003",0
561,"Franklin Drive","CT","41.798943000000001","-73.116266999999993",241945.546685017
562,"Middletown","CT","41.554943999999999","-72.579075000000003",42527526.9247955
563,"South Meadow","CT","41.749499999999998","-72.6524",1416534.90351303
564,"Stanton Energy Center","FL","28.482199999999999","-81.1678",1699477480.68355
565,"Torrington Terminal","CT","41.776108999999998","-73.120885999999999",213249.205797413
566,"Millstone","CT","41.310699999999997","-72.167699999999996",334408874.657918
568,"Bridgeport Station","CT","41.1706","-73.184399999999997",137190194.787843
579,"Central Hudson High Falls","NY","41.828814000000001","-74.131877000000003",0
581,"North Main Street","CT","41.526789999999998","-72.064935000000006",209149.728527755
583,"Tenth Street","CT","41.538955000000001","-72.050935999999993",0
584,"Navajo Dam","NM","36.806100000000001","-107.6131",0
585,"Drop 1","CA","32.711610999999998","-114.942666",0
586,"East Highline","CA","32.699451000000003","-115.28245",0
589,"J C McNeil","VT","44.491700000000002","-73.208055999999999",68419128.260969
591,"Christiana","DE","39.730200000000004","-75.537099999999995",793847.222584589
592,"Delaware City 10","DE","39.600408000000002","-75.626811000000004",332083.121434013
593,"Edge Moor","DE","39.738860000000003","-75.503839999999997",96585876.0694184
594,"Indian River Generating Station","DE","38.585700000000003","-75.234099999999998",786690484.151804
597,"West Station (DE)","DE","39.728299999999997","-75.628900000000002",276982.072915135
599,"McKee Run","DE","39.176222000000003","-75.546627999999998",4228827.00303529
602,"Brandon Shores","MD","39.18","-76.538899999999998",3367563798.28797
607,"Fredonia","WA","48.455800000000004","-122.4358",8745668.40387451
609,"Cape Canaveral","FL","28.469799999999999","-80.764399999999995",410340636.349104
610,"Cutler","FL","25.632100000000001","-80.298900000000003",NA
612,"Fort Myers","FL","26.6967","-81.783100000000005",588756814.721475
613,"Lauderdale","FL","26.0686","-80.198400000000007",357851175.177332
617,"Port Everglades","FL","26.085599999999999","-80.125299999999996",1718084.02717047
619,"Riviera","FL","26.7653","-80.052499999999995",299374179.153738
620,"Sanford","FL","28.841899999999999","-81.325599999999994",617591057.494918
621,"Turkey Point","FL","25.435600000000001","-80.330799999999996",677479471.238925
622,"South Fork Tolt","WA","47.699167000000003","-121.783333",0
624,"Avon Park","FL","27.579443999999999","-81.492778000000001",530214.868446338
625,"Upper Mechanicville","NY","42.912599999999998","-73.680499999999995",0
626,"Oak Flat","CA","40.075310000000002","-121.16143",0
627,"Bayboro","FL","27.758056","-82.635278",2111128.94350678
628,"Crystal River","FL","28.965599999999998","-82.697699999999998",720674890.595739
629,"G E Turner","FL","28.869577","-81.273956999999996",3474599.8058399
630,"Higgins","FL","28.003261999999999","-82.661507",1093092.65132354
632,"Newcastle","CA","38.835182000000003","-121.09298200000001",0
634,"P L Bartow","FL","27.859535000000001","-82.601759000000001",476284603.166328
637,"Rio Pinar","FL","28.541515","-81.254067000000006",38957.7653576169
638,"Suwannee River","FL","30.376389","-83.180555999999996",61771940.4837555
641,"Crist","FL","30.566099999999999","-87.224400000000003",1347302695.04715
642,"Scholz","FL","30.6692","-84.886899999999997",29740.3071488212
643,"Lansing Smith","FL","30.268599999999999","-85.700299999999999",609203194.464578
645,"Big Bend","FL","27.7944","-82.403599999999997",2481579289.02109
646,"F J Gannon","FL","27.907222000000001","-82.423055000000005",NA
647,"Hookers Point","FL","27.9375","-82.444444000000004",NA
649,"Vogtle","GA","33.142699999999998","-81.762500000000003",381265899.783808
650,"Kensico","NY","41.085099999999997","-73.774799999999999",NA
658,"Henry D King","FL","27.448611","-80.338611",NA
663,"Deerhaven Generating Station","FL","29.7592","-82.387799999999999",460984730.931044
664,"John R Kelly","FL","29.646100000000001","-82.320800000000006",19958656.9780403
665,"G W Ivey","FL","25.4756","-80.47",2279832.43886897
666,"J D Kennedy","FL","30.364818","-81.625967000000003",4936474.95636529
667,"Northside Generating Station","FL","30.417200000000001","-81.552499999999995",1045604849.20521
668,"Southside Generating Station","FL","30.316389000000001","-81.648887999999999",NA
672,"Hansel","FL","28.289435999999998","-81.407908000000006",NA
673,"Tom G Smith","FL","26.612767000000002","-80.067700000000002",2934285.28021724
674,"Pilot Butte","WY","43.219017000000001","-108.78768100000001",NA
675,"Larsen Memorial","FL","28.079699999999999","-81.922799999999995",842171.422776812
676,"C D McIntosh Jr","FL","28.080100000000002","-81.922899999999998",145472051.937005
678,"W K Sanders","VT","44.625281999999999","-72.530859000000007",0
679,"Smith Street","FL","29.021899999999999","-80.964399999999998",NA
681,"W E Swoope","FL","29.021899999999999","-80.964399999999998",NA
682,"Kerckhoff 2","CA","37.071846000000001","-119.558008",0
683,"Indian River Plant","FL","28.493231999999999","-80.780124000000001",2131570.54917513
685,"St Cloud","FL","28.244700000000002","-81.2881",NA
688,"Arvah B Hopkins","FL","30.452200000000001","-84.4",115900793.83938
689,"S O Purdom","FL","30.162303999999999","-84.200672999999995",88047601.3314714
690,"J Woodruff","FL","30.708570999999999","-84.863868999999994",0
692,"Medicine Bow","WY","41.835278000000002","-106.242778",9093.05892727304
693,"Vero Beach Municipal Power Plant","FL","27.633382000000001","-80.377550999999997",1919127.38672969
696,"Marathon Generating Plant","FL","24.710833000000001","-81.092699999999994",44763.2362736539
698,"Trenton North","MO","40.078600000000002","-93.635000000000005",39288.7790501979
699,"Arkwright","GA","32.926943999999999","-83.699444",NA
700,"Atkinson","GA","33.817500000000003","-84.480277999999998",NA
701,"Barnett Shoals","GA","33.839475","-83.309715999999995",NA
702,"Bartletts Ferry","AL","32.661976000000003","-85.091551999999993",0
703,"Bowen","GA","34.125599999999999","-84.922200000000004",4278593617.45314
704,"Burton Dam","GA","34.793900000000001","-83.540599999999998",0
706,"Flint River","GA","31.602799999999998","-84.137600000000006",0
707,"Goat Rock","AL","32.609650000000002","-85.080500000000001",0
708,"Hammond","GA","34.252800000000001","-85.345600000000005",132819851.33869
709,"Harllee Branch","GA","33.195","-83.298299999999998",473203032.80189
710,"Jack McDonough","GA","33.823900000000002","-84.475800000000007",1059001391.57625
711,"Langdale","AL","32.813836000000002","-85.167786000000007",0
712,"Lloyd Shoals","GA","33.320773000000003","-83.841921999999997",0
714,"Toadtown","CA","39.893490999999997","-121.59338",0
715,"McManus","GA","31.213645","-81.546165000000002",3980363.26551202
717,"Morgan Falls","GA","33.968400000000003","-84.3827",0
718,"Nacoochee","GA","34.755268999999998","-83.501073000000005",0
719,"North Highlands","GA","32.498790999999997","-84.995585000000005",0
720,"Oliver Dam","GA","32.516300000000001","-84.996899999999997",0
722,"Sinclair Dam","GA","33.140300000000003","-83.202799999999996",0
723,"Tallulah Falls","GA","34.731332000000002","-83.375474999999994",0
724,"Terrora","GA","34.750399999999999","-83.406300000000002",0
725,"Tugalo","GA","34.713299999999997","-83.351900000000001",0
727,"Mitchell (GA)","GA","31.444728000000001","-84.134696000000005",863487.410985296
728,"Yates","GA","33.462200000000003","-84.898600000000002",4656580.29957098
729,"Yonah","GA","34.681477000000001","-83.342641999999998",0
732,"Boulevard","GA","32.0411","-81.144999999999996",30605.9780909798
733,"Kraft","GA","32.148600000000002","-81.145799999999994",197454272.313075
734,"Riverside (GA)","GA","32.083610999999998","-81.095555000000004",NA
736,"Stevens Creek","GA","33.562643999999999","-82.051242000000002",0
745,"Etiwanda","CA","34.103450000000002","-117.5257",0
747,"Dinner Lake","FL","27.4925","-81.435833000000002",NA
748,"Phillips","FL","27.443899999999999","-81.363299999999995",NA
751,"Moccasin Low Head Hydro Project","CA","37.816446999999997","-120.312033",0
752,"Lake Blackshear Project","GA","31.847697","-83.941996000000003",0
753,"Crisp Plant","GA","31.844708000000001","-83.940734000000006",71772.8400494007
754,"Hartwell Lake","GA","34.356400000000001","-82.821899999999999",0
757,"Blue Ridge","GA","34.883889000000003","-84.282222000000004",0
758,"Nottely","GA","34.959153000000001","-84.087649999999996",0
759,"Buford","GA","34.162278999999998","-84.077366999999995",0
760,"Allatoona","GA","34.163699999999999","-84.728200000000001",0
761,"Walter F George","GA","34.614229999999999","-84.674763999999996",0
762,"Ponca","OK","36.719790000000003","-97.085757999999998",111076.162479244
764,"Honolulu","HI","21.306799999999999","-157.8819",617315.074071937
765,"Kahe","HI","21.356394999999999","-158.12885299999999",695154929.964528
766,"Waiau","HI","21.388997","-157.96151800000001",294379516.032402
768,"Waimea","HI","19.630600000000001","-155.98169999999999",862417.982132342
769,"Kanoelehua","HI","19.705200000000001","-155.0625",442056.055146135
771,"Puueo","HI","19.726400000000002","-155.0908",0
772,"W H Hill","HI","19.7041","-155.0607",57552179.4498487
773,"Sullivan CR","WA","48.863332999999997","-117.345277",NA
774,"Waiau Hydro","HI","19.720300000000002","-155.1189",0
776,"Sly Creek","CA","39.580413","-121.119479",0
783,"Basin Mills","ME","44.875","-68.673055000000005",NA
784,"Veazie C","ME","44.836666999999998","-68.698054999999997",NA
785,"Kingsley","NE","41.211399999999998","-101.6681",0
788,"East Barnet","VT","44.326335","-72.035893999999999",0
789,"Orca","AK","60.555","-145.75309999999999",1848686.01047347
790,"Gem State","ID","43.420220999999998","-112.10185199999999",0
791,"Canyon","TX","29.870560000000001","-98.194732999999999",0
792,"Palaau Power","HI","21.106000000000002","-157.06469999999999",8245856.63329501
794,"Lewisville","TX","33.068472999999997","-96.963806000000005",0
805,"Charles E Monty","ME","44.099460999999998","-70.220850999999996",0
808,"Jarvis (Hinckley)","NY","43.312100000000001","-75.108999999999995",0
809,"American Falls","ID","42.777799999999999","-112.8764",0
810,"Bliss","ID","42.913786000000002","-115.070986",0
811,"Brownlee","ID","44.8367","-116.89749999999999",0
812,"C J Strike","ID","42.944868999999997","-115.977858",0
813,"Cascade Dam","ID","44.525599999999997","-116.0483",0
814,"Clear Lake","ID","42.667009999999998","-114.78012",0
815,"Lower Malad","ID","42.865783","-114.906172",0
816,"Lower Salmon","ID","42.841608000000001","-114.903611",0
817,"Salmon Diesel","ID","45.183368000000002","-113.885307",15710.4191017318
818,"Shoshone Falls","ID","42.597499999999997","-114.4033",0
819,"Swan Falls","ID","43.243499999999997","-116.37909999999999",0
820,"Thousand Springs","ID","42.740541999999998","-114.83672199999999",0
821,"Twin Falls (ID)","ID","42.589199999999998","-114.3553",0
822,"Upper Salmon A","ID","42.767422000000003","-114.92469199999999",0
823,"Upper Malad","ID","42.864266999999998","-114.885542",0
825,"Ashton","ID","44.078629999999997","-111.497326",0
826,"Cove","ID","42.514443999999997","-111.793055",NA
827,"Grace","ID","42.536749999999998","-111.79396699999999",0
829,"Oneida","ID","42.267774000000003","-111.748531",0
831,"Soda","ID","42.644550000000002","-111.69668900000001",0
833,"Cabinet Gorge","ID","48.084443999999998","-116.053056",0
835,"Post Falls","ID","47.703333000000001","-116.953889",0
839,"Scott Flat","CA","39.272108000000003","-120.932508",0
840,"Dworshak","ID","46.514299999999999","-116.29770000000001",0
841,"City Power Plant","ID","43.491397999999997","-112.04541",0
843,"Lower No 2","ID","43.468398000000001","-112.062602",0
844,"Upper Power Plant","ID","43.552695","-112.05095300000001",0
846,"Combie South","CA","39.009599999999999","-121.0591",0
850,"Palisades Dam","ID","43.334848999999998","-111.205752",0
851,"Albeni Falls","ID","48.180244999999999","-116.99858999999999",0
856,"E D Edwards","IL","40.595799999999997","-89.6631",352193294.418262
860,"Sterling Avenue","IL","40.625278000000002","-89.631111000000004",NA
861,"Coffeen","IL","39.058599999999998","-89.403099999999995",547601284.592848
862,"Grand Tower Energy Center LLC","IL","37.657699999999998","-89.511161000000001",7190665.38189843
865,"Bloom","IL","42.057222000000003","-87.869444000000001",NA
866,"Calumet","IL","41.713611","-87.542777999999998",NA
867,"Crawford","IL","41.828479999999999","-87.722909999999999",NA
869,"Dresden Generating Station","IL","41.39","-88.27",319384726.032166
870,"Electric Junction","IL","41.833300000000001","-88.083299999999994",NA
874,"Joliet 9","IL","41.493099999999998","-88.115300000000005",390410147.219584
876,"Kincaid Generation LLC","IL","39.590555999999999","-89.496388999999994",649447808.281561
877,"Lombard","IL","41.89","-88.061667",NA
879,"Powerton","IL","40.540799999999997","-89.678600000000003",895586726.111832
880,"Quad Cities Generating Station","IL","41.726111000000003","-90.310277999999997",324875449.694957
882,"Sabrooke","IL","42.216943999999998","-89.052222",NA
883,"Waukegan","IL","42.383299999999998","-87.813299999999998",290275614.106022
884,"Will County","IL","41.633400000000002","-88.062899999999999",394478559.760211
886,"Fisk Street","IL","41.8508","-87.653300000000002",442692.61993956
887,"Joppa Steam","IL","37.209400000000002","-88.858889000000005",690264024.589365
889,"Baldwin Energy Complex","IL","38.204999999999998","-89.854399999999998",1174208376.46484
891,"Havana","IL","40.279699999999998","-90.08",282375637.776161
892,"Hennepin Power Station","IL","41.302799999999998","-89.314999999999998",174273853.12123
894,"Oglesby","IL","41.289700000000003","-89.072500000000005",NA
895,"Stallings","IL","38.731400000000001","-90.046099999999996",NA
897,"Vermilion","IL","40.178100000000001","-87.748099999999994",NA
898,"Wood River","IL","38.863900000000001","-90.134699999999995",317987579.180543
899,"Moline","IL","41.509959000000002","-90.534020999999996",156291.978337884
902,"Bottle Rock Power","CA","38.834800000000001","-122.7677",506724263.848019
903,"Rockton","IL","42.451099999999997","-89.075599999999994",0
905,"Alamo","CA","34.815800000000003","-118.6867",0
913,"Venice","IL","38.664200000000001","-90.176400000000001",3464801.65221032
917,"Quincy Chute","WA","46.982514000000002","-119.25776399999999",0
925,"Hydro Plant No 3","UT","39.205623000000003","-111.33438099999999",0
934,"Breese","IL","38.607455999999999","-89.524513999999996",86216.3356214972
935,"Bushnell","IL","40.548299999999998","-90.540800000000004",137727.158705457
936,"Carlyle","IL","38.610599999999998","-89.3583",64114.8059937773
937,"Carmi","IL","38.096699999999998","-88.1631",56476.028472676
940,"Fairfield","IL","38.379717999999997","-88.366860000000003",17085.39905553
941,"Farmer City","IL","40.246110000000002","-88.638761000000002",13215.0851115053
943,"Freeburg","IL","38.425556","-89.914444000000003",24342.2377005763
944,"Geneseo","IL","41.451493999999997","-90.148546999999994",170800.732848428
946,"Highland","IL","38.7333","-89.6875",63503.7037920892
948,"McLeansboro","IL","38.092500000000001","-88.545299999999997",3361.06210928459
949,"Marshall (IL)","IL","39.392138000000003","-87.685130000000001",55941.3140461989
955,"Peru (IL)","IL","41.323700000000002","-89.112300000000005",57418.1443669451
956,"C H Corn Hydroelectric Facility","FL","30.388517","-84.646624000000003",0
957,"Princeton (IL)","IL","41.3767","-89.381699999999995",77531.4752434011
958,"Rantoul","IL","40.312221999999998","-88.159443999999993",70454.9913362914
959,"Red Bud","IL","38.206400000000002","-89.993099999999998",46469.2299200332
960,"North Ninth Street","IL","41.909300000000002","-89.049800000000005",174283.231090111
961,"South Main Street","IL","41.909199999999998","-89.050399999999996",28035.8273771677
963,"Dallman","IL","39.754803000000003","-89.602389000000002",2458559.43290255
964,"Lakeside","IL","39.757326999999997","-89.600511999999995",7027.67531941324
965,"Reynolds","IL","39.806868000000001","-89.641653000000005",36895.2954269195
969,"Sullivan (IL)","IL","39.596666999999997","-88.611943999999994",74860.0197067932
971,"Waterloo","IL","38.334786000000001","-90.158939000000004",132233.293338676
972,"Winnetka","IL","42.115589","-87.731025000000002",383012.772022191
976,"Marion","IL","37.619746999999997","-88.953113999999999",846316529.021969
983,"Clifty Creek","IN","38.7378","-85.420599999999993",3190907333.81903
986,"Elkhart","IN","41.692799999999998","-85.965000000000003",0
987,"Last Chance","ID","42.603349000000001","-111.705304",0
988,"Tanners Creek","IN","39.081400000000002","-84.859399999999994",738690431.373446
989,"Twin Branch","IN","41.664999999999999","-86.132199999999997",0
990,"Harding Street","IN","39.711319000000003","-86.196866999999997",13088430.0270032
991,"Eagle Valley (IN)","IN","39.485169999999997","-86.418300000000002",995332.710999506
992,"CC Perry K","IN","39.763100000000001","-86.166700000000006",41658210.8144826
994,"AES Petersburg","IN","38.528100000000002","-87.252499999999998",7353418.25550474
995,"Bailly","IN","41.645000000000003","-87.122500000000002",23378391.9777947
996,"Dean H Mitchell","IN","41.639200000000002","-87.406899999999993",NA
997,"Michigan City","IN","41.720799999999997","-86.908600000000007",569625876.923513
998,"Norway (IN)","IN","40.780299999999997","-86.76",0
999,"Oakdale","IN","40.656399999999998","-86.752799999999993",0
1001,"Cayuga","IN","39.924199999999999","-87.424400000000006",2413496.05474795
1002,"Connersville","IN","39.656100000000002","-85.175799999999995",20217.2978391816
1004,"Edwardsport","IN","38.806699999999999","-87.247200000000007",555082041.883096
1005,"Markland","IN","38.779499999999999","-84.963999999999999",0
1006,"Miami Wabash","IN","40.788400000000003","-85.817800000000005",40561.9086370482
1007,"Noblesville","IN","40.096899999999998","-85.971400000000003",25209637.6020276
1008,"R Gallagher","IN","38.263599999999997","-85.838099999999997",290586035.733503
1010,"Wabash River","IN","39.53","-87.424700000000001",3681203.27519395
1011,"Broadway (IN)","IN","37.969116","-87.604878999999997",900568.458251958
1012,"F B Culley","IN","37.911099999999998","-87.327500000000001",2434856.030639
1013,"Northeast (IN)","IN","38.021099999999997","-87.517200000000003",11011.0127244282
1016,"Butler-Warner Generation Plant","NC","35.098599999999998","-78.829400000000007",5794997.23054335
1020,"Manti Lower","UT","39.255910999999998","-111.62149100000001",0
1024,"Crawfordsville Power Plant","IN","40.048889000000003","-86.899199999999993",305.551100844054
1032,"Logansport","IN","40.758857999999996","-86.360288999999995",0
1037,"Peru (IN)","IN","40.755099999999999","-86.057500000000005",5958.24646645905
1038,"Rensselaer City Light Plant","IN","40.939528000000003","-87.154471999999998",577461.337654639
1040,"Whitewater Valley","IN","39.802799999999998","-84.895300000000006",15129783.3837147
1043,"Frank E Ratts","IN","38.520099999999999","-87.266199999999998",896537.855059928
1046,"Dubuque","IA","42.503100000000003","-90.658610999999993",2070231.398065
1047,"Lansing","IA","43.335900000000002","-91.167500000000004",107804501.040587
1048,"Milton L Kapp","IA","41.808100000000003","-90.233610999999996",74809217.8221934
1052,"Ames Diesel Generating Station","IA","42.013319000000003","-93.575416000000004",NA
1058,"Sixth Street","IA","41.984768000000003","-91.668610999999999",NA
1060,"Duane Arnold Energy Center","IA","42.101100000000002","-91.778099999999995",87662115.8672689
1067,"Iowa Hydro LLC","IA","42.069986999999998","-90.697657000000007",0
1068,"Marshalltown","IA","42.047400000000003","-92.859443999999996",3320220.11213844
1073,"Prairie Creek","IA","41.944038999999997","-91.639167",122993835.374251
1077,"Sutherland","IA","42.047333000000002","-92.859443999999996",5338918.95280734
1079,"Coralville GT","IA","41.671877000000002","-91.563998999999995",156309.867879272
1081,"Riverside","IA","41.54","-90.448099999999997",56139279.3320792
1082,"Walter Scott Jr Energy Center","IA","41.18","-95.840800000000002",938868232.830481
1084,"River Hills","IA","41.590218","-93.619499000000005",281635.050074206
1091,"George Neal North","IA","42.299793999999999","-96.361706999999996",319458626.882718
1097,"Merle Parr","IA","43.0563","-92.693200000000004",48784.7793655822
1104,"Burlington (IA)","IA","40.741199999999999","-91.116667000000007",103877776.94863
1105,"Centerville","IA","40.747799999999998","-92.873056000000005",69258.2495246522
1109,"Keokuk","IA","40.396500000000003","-91.371899999999997",0
1120,"Algona","IA","43.073300000000003","-94.239199999999997",54127.0683210965
1121,"Alta Municipal Utilities","IA","42.673299999999998","-95.303899999999999",0
1122,"Ames Electric Services Power Plant","IA","42.025799999999997","-93.608900000000006",33641141.3072956
1123,"Anita","IA","41.444400000000002","-94.768900000000002",7842.47825499738
1124,"Atlantic","IA","41.408999999999999","-95",9420.27243812462
1125,"Bancroft","IA","43.292628000000001","-94.217074999999994",4863.35502176786
1126,"Bellevue","IA","42.25","-90.416700000000006",8428.11786494849
1127,"Bloomfield","IA","40.703099999999999","-92.425299999999993",16933.2235999312
1128,"Brooklyn","IA","41.727800000000002","-92.447900000000004",1629.60587116829
1129,"Cascade","IA","42.227499999999999","-91.113738999999995",2929.56977010079
1130,"Gas Turbine (IA)","IA","42.512","-92.475999999999999",160665.971207295
1131,"Streeter Station","IA","42.526699999999998","-92.439400000000006",1939923.44005001
1132,"Coggon","IA","42.292499999999997","-91.558099999999996",5499.91981519297
1134,"Corning","IA","40.973999999999997","-94.766900000000007",8555.43082363351
1135,"Dayton (IA)","IA","42.252499999999998","-94.058099999999996",4736.04206308284
1137,"Estherville","IA","43.402799999999999","-94.843299999999999",28768.7561814055
1138,"Forest City Light Plant","IA","43.263235000000002","-93.635383000000004",58436.6480364253
1141,"Gowrie","IA","42.274514000000003","-94.270195000000001",3055.51100844054
1142,"Graettinger","IA","43.239699999999999","-94.749799999999993",7078.60050288725
1143,"Grand Junction","IA","42.029600000000002","-94.369900000000001",2699.03472412248
1144,"Greenfield","IA","41.303888999999998","-94.460555999999997",4888.81761350486
1145,"Grundy Center City Light Plant","IA","42.363093999999997","-92.772322000000003",31726.3893043076
1146,"Harlan","IA","41.644542000000001","-95.315282999999994",1145.8166281652
1150,"Indianola","IA","41.359490999999998","-93.563267999999994",144169.194414919
1153,"Lake Park","IA","43.430100000000003","-95.315299999999993",8988.29488316259
1154,"Lake Mills","IA","43.417200000000001","-93.532200000000003",12813.7706199176
1155,"Lamoni Municipal Utilities","IA","40.622","-93.932599999999994",66482.8270253187
1156,"La Porte","IA","42.319400000000002","-92.196700000000007",30987.9741439345
1157,"Laurens","IA","42.848599999999998","-94.8506",19122.4063944904
1158,"Lenox","IA","40.880000000000003","-94.558899999999994",14335.4391479335
1160,"Manning","IA","41.906700000000001","-95.034700000000001",28900.0416215001
1162,"Maquoketa 1","IA","42.035556","-90.665000000000006",10461.0955455996
1163,"McGregor","IA","43.023733","-91.174926999999997",2699.03472412248
1164,"Milford","IA","43.326082999999997","-95.148339000000007",10897.9892634379
1165,"Montezuma","IA","41.586025999999997","-92.522800000000004",48704.9363272867
1166,"Mt Pleasant","IA","40.974200000000003","-91.562200000000004",141190.07118169
1167,"Muscatine Plant #1","IA","41.3917","-91.056899999999999",135263355.826827
1168,"New Hampton","IA","43.068899999999999","-92.320099999999996",90393.8283696452
1169,"Ogden","IA","42.037199999999999","-94.046199999999999",13622.4865792974
1172,"Osage (IA)","IA","43.279722","-92.810556000000005",17445.3277109389
1173,"Ottumwa City of","IA","41.016345999999999","-92.414873",0
1175,"Pella","IA","41.398099999999999","-92.914400000000001",NA
1176,"Preston (IA)","IA","42.066099999999999","-90.391099999999994",0
1177,"Primghar","IA","43.087130000000002","-95.625960000000006",0
1180,"Rockford","IA","43.052999999999997","-92.959721999999999",2138.85770590838
1181,"Rock Rapids","IA","43.429443999999997","-96.169166000000004",13164.1599280313
1184,"Sibley One","IA","43.405000000000001","-95.726100000000002",11893.4878973735
1186,"Spencer Gas Turbine","IA","43.144584999999999","-95.144256999999996",95153.7053211858
1187,"State Center","IA","42.016669999999998","-93.163330000000002",59898.9895281968
1188,"Story City","IA","42.186076","-93.600479000000007",15124.7794917807
1189,"Strawberry Point","IA","42.684443999999999","-91.535555000000002",NA
1190,"Stuart (IA)","IA","41.503889000000001","-94.3172",2138.85770590838
1191,"Sumner","IA","42.846400000000003","-92.097800000000007",8657.28119058153
1192,"Traer Main","IA","42.192599999999999","-92.4636",5769.72015908761
1193,"Villisca Municipal Power Plant","IA","40.955599999999997","-94.975800000000007",3055.51100844054
1194,"Vinton","IA","42.169699999999999","-92.022199999999998",100594.580307912
1198,"Webster City","IA","42.471021999999998","-93.814989999999995",12629.4455015542
1199,"West Bend","IA","42.961151000000001","-94.445573999999993",16423.3716703679
1200,"West Liberty","IA","41.569127999999999","-91.264049999999997",114327.03689915
1201,"Whittemore","IA","43.064444000000002","-94.421943999999996",0
1202,"Wilton","IA","41.587747999999998","-91.019456000000005",16092.3579777868
1203,"Winterset","IA","41.3215","-94.021900000000002",16144.2829691357
1206,"Summit Lake","IA","41.113599999999998","-94.347200000000001",757166.608932884
1217,"Earl F Wisdom","IA","43.160600000000002","-95.256900000000002",806936.832727245
1218,"Fair Station","IA","41.456899999999997","-90.823300000000003",NA
1224,"Bird City","KS","39.758099999999999","-101.53189999999999",19758.9711879155
1225,"Colby","KS","39.403001000000003","-101.038202",30957.8513722552
1230,"Cimarron River","KS","37.161099999999998","-100.7619",3136689.57360961
1233,"Fort Dodge","KS","37.732799999999997","-99.949700000000007",28970967.3475178
1235,"Great Bend - Sunflower","KS","38.409999999999997","-98.868899999999996",733086.571775764
1239,"Riverton","KS","37.072615999999996","-94.698704000000006",12452596.6933417
1240,"Gordon Evans Energy Center","KS","37.790300000000002","-97.521666999999994",40845414.9388988
1241,"La Cygne","KS","38.348100000000002","-94.645600000000002",720085281.920296
1242,"Murray Gill","KS","37.596699999999998","-97.413611000000003",13754373.8963065
1243,"Neosho","KS","37.305556000000003","-95.110277999999994",NA
1248,"Hutchinson Energy Center","KS","38.090600000000002","-97.874722000000006",8468216.1869986
1250,"Lawrence Energy Center","KS","39.007199999999997","-95.269166999999996",355395064.096261
1251,"Abilene Energy Center Combustion Turbine","KS","38.883099999999999","-97.201389000000006",NA
1252,"Tecumseh Energy Center","KS","39.053899999999999","-95.568888999999999",136054889.789181
1258,"Anthony","KS","37.151699999999998","-98.031099999999995",88726.9541900818
1259,"Ashland","KS","37.193787","-99.763073000000006",27244.9731585948
1261,"Augusta Electric Plant No 1","KS","37.678454000000002","-96.97193",0
1262,"Baldwin City Plant No 1","KS","38.789700000000003","-95.204999999999998",6655.59551920054
1263,"Belleville","KS","39.808100000000003","-97.650499999999994",46171.5650293716
1264,"Beloit","KS","39.457799999999999","-98.112200000000001",130324.19957847
1265,"Burlingame","KS","38.763300000000001","-95.852800000000002",3703.84951597687
1266,"Burlington (KS)","KS","38.193179000000001","-95.749510000000001",71167.7151973291
1267,"Chanute 1","KS","37.683332999999998","-95.454722000000004",NA
1268,"Chanute 2","KS","37.695300000000003","-95.458600000000004",304553.753115239
1270,"Clay Center","KS","39.373966000000003","-97.127211000000003",0
1271,"Coffeyville","KS","37.037343999999997","-95.612689000000003",1683574.28139673
1272,"Colby City of","KS","39.394413999999998","-101.05837200000001",14064.8383274441
1274,"Ellinwood","KS","38.355556","-98.580600000000004",6579.66515918653
1275,"Ellis","KS","38.947221999999996","-99.528610999999998",NA
1276,"Erie","KS","37.566809999999997","-95.237499",3590.22543491763
1278,"Garnett Municipal","KS","38.285800000000002","-95.259399999999999",0
1279,"Girard","KS","37.507708999999998","-94.839318000000006",27263.6616008406
1280,"Goodland","KS","39.341622000000001","-101.70518800000001",180711.004577214
1283,"Herington","KS","38.672800000000002","-96.941100000000006",0
1285,"Hill City","KS","39.378100000000003","-99.823899999999995",0
1286,"Hoisington","KS","38.527500000000003","-98.775800000000004",3334.71353822627
1287,"Holton","KS","39.473500000000001","-95.731549999999999",158895.480479844
1289,"Hugoton 1","KS","37.174999999999997","-101.3458",NA
1291,"Iola","KS","37.923076000000002","-95.425572000000003",110839.912894778
1292,"Jetmore","KS","38.085299999999997","-99.898899999999998",0
1294,"Kaw","KS","39.0867","-94.651388999999995",NA
1295,"Quindaro","KS","39.1492","-94.638099999999994",121146248.326774
1296,"Kingman Municipal Power and Light Plant","KS","37.383110000000002","-98.070363999999998",323395.672863308
1297,"La Crosse","KS","38.531666999999999","-99.308333000000005",7715.16529631236
1298,"Gas Turbine (KS)","KS","38.179699999999997","-99.112499999999997",NA
1299,"Larned","KS","38.179721999999998","-99.112499999999997",36691.5946930235
1300,"Lincoln","KS","39.040799999999997","-98.147199999999998",45255.9131104515
1305,"McPherson 2","KS","38.363410999999999","-97.683350000000004",1354729.4035777
1306,"Meade","KS","37.225000000000001","-100.3261",NA
1307,"Minneapolis City of","KS","39.119399999999999","-97.708600000000004",43103.7074873322
1308,"Mulvane Power Plant","KS","37.472448","-97.246748999999994",0
1312,"Oberlin (KS)","KS","39.8217","-100.52889999999999",NA
1313,"Osage City","KS","38.640599999999999","-95.818600000000004",10365.7607189802
1314,"Osawatomie City of","KS","38.504199999999997","-94.977500000000006",1731.45623811631
1315,"Osborne","KS","39.441979000000003","-98.690296000000004",2305.95055460634
1316,"Ottawa","KS","38.615578999999997","-95.279741999999999",3052502.98779963
1317,"Pratt","KS","37.635899999999999","-98.743300000000005",362515.067261611
1319,"Russell Downtown","KS","38.893332999999998","-98.856943999999999",51687.6302278914
1320,"Sabetha Power Plant","KS","39.904921999999999","-95.803366999999994",91890.6894766642
1321,"St Francis","KS","39.773600000000002","-101.8122",0
1322,"St John","KS","38.008299999999998","-98.763300000000001",6823.9745855172
1324,"Sharon Spring","KS","38.8917","-101.74809999999999",31120.0584848867
1325,"Stafford","KS","37.955300000000001","-98.592799999999997",0
1326,"Sterling","KS","38.202500000000001","-98.198599999999999",8925.65263723127
1327,"Stockton","KS","39.377200000000002","-99.294700000000006",2032.60629342641
1328,"Wamego","KS","39.199199999999998","-96.308599999999998",73224.0378234482
1329,"Washington","KS","39.818899999999999","-97.055599999999998",4702.72053649889
1330,"Wellington 1","KS","37.261372000000001","-97.405699999999996",12427.0871116851
1332,"West 14th Street","KS","37.235399999999998","-97.010999999999996",64268.1774370568
1334,"Great Bend - Midwest Energy","KS","38.370800000000003","-98.783100000000005",NA
1336,"Garden City","KS","37.970300000000002","-100.8956",4923979.98507907
1353,"Big Sandy","KY","38.170699999999997","-82.617599999999996",98981930.6664044
1354,"Dix Dam","KY","37.7864","-84.702799999999996",0
1355,"E W Brown","KY","37.788310000000003","-84.712569999999999",1262291297.77859
1356,"Ghent","KY","38.749699999999997","-85.034999999999997",6644629832.29783
1357,"Green River","KY","37.363599999999998","-87.121399999999994",514624.441596598
1358,"Haefling","KY","38.0794","-84.519400000000005",157507.068681845
1359,"Mother Ann Lee","KY","37.829700000000003","-84.724699999999999",0
1360,"Pineville","KY","36.796666999999999","-83.761387999999997",NA
1361,"Tyrone","KY","38.047800000000002","-84.848299999999995",NA
1363,"Cane Run","KY","38.183100000000003","-85.889200000000002",1243501.13696395
1364,"Mill Creek (KY)","KY","38.052500000000002","-85.910300000000007",4592568213.61657
1365,"Ohio Falls","KY","38.283200000000001","-85.779200000000003",0
1366,"Paddys Run","KY","38.223591999999996","-85.841703999999993",10487913.589467
1367,"Waterside GT","KY","38.258333","-85.754165999999998",NA
1368,"Zorn","KY","38.280278000000003","-85.702331000000001",28211.8067691687
1371,"Barkley","KY","37.021700000000003","-88.221100000000007",0
1374,"Elmer Smith","KY","37.794199999999996","-87.0608",1286287827.95204
1376,"Paris (KY)","KY","38.204900000000002","-84.238299999999995",295773.465617044
1377,"Kentucky Dam","KY","37.013100000000001","-88.269199999999998",0
1378,"Paradise","KY","37.260800000000003","-86.978300000000004",6670085572.51467
1379,"Shawnee","KY","37.151699999999998","-88.775000000000006",1113663463.50319
1380,"Wolf Creek","KY","36.869100000000003","-85.147000000000006",0
1381,"Kenneth C Coleman","KY","37.963099999999997","-86.7911",284676.272110198
1382,"HMP&L Station Two Henderson","KY","37.646900000000002","-87.502799999999993",680233.138254075
1383,"Robert A Reid","KY","37.646099999999997","-87.501900000000006",807580.111904475
1384,"Cooper","KY","36.998100000000001","-84.591899999999995",751070.068466421
1385,"Dale","KY","37.880600000000001","-84.261899999999997",134977.198797861
1391,"Louisiana 1","LA","30.4922","-91.186400000000006",330430276.931959
1392,"Louisiana 2","LA","30.4922","-91.186400000000006",NA
1393,"R S Nelson","LA","30.284400000000002","-93.2911",820348063.750162
1394,"Willow Glen","LA","30.2743","-91.116399999999999",104244701.198879
1396,"Coughlin Power Station","LA","30.843900000000001","-92.261111",112302749.939755
1400,"Teche","LA","29.822222","-91.542500000000004",17364760.6363339
1401,"Buras","LA","29.359145000000002","-89.537263999999993",647807.127978283
1402,"Little Gypsy","LA","30.005067","-90.461693999999994",151057328.577057
1403,"Nine Mile Point","LA","29.947199999999999","-90.145799999999994",413609667.465881
1404,"Sterlington","LA","32.704700000000003","-92.0792",1249647.07935962
1407,"A B Paterson","LA","30.015833000000001","-90.025555999999995",NA
1409,"Michoud","LA","30.008099999999999","-89.937200000000004",195987824.140096
1416,"Arsenal Hill","LA","32.518099999999997","-93.761099999999999",4282675.70539539
1417,"Lieberman","LA","32.704700000000003","-93.959699999999998",8635478.41303246
1435,"Franklin (LA)","LA","29.822222","-91.542500000000004",1520.61101799578
1439,"Houma","LA","29.5806","-90.722499999999997",2014657.5377426
1443,"Louis Doc Bonin","LA","30.238038","-92.046263999999994",0
1445,"Rodemacher","LA","30.236111000000001","-92.008332999999993",NA
1447,"Minden","LA","32.604638999999999","-93.294354999999996",69679.763706983
1448,"Monroe (LA)","LA","32.523299999999999","-92.179400000000001",NA
1449,"Morgan City","LA","29.691435999999999","-91.188491999999997",751253.401055467
1453,"New Roads","LA","30.726111","-91.368333000000007",21877.9953378484
1455,"Plaquemine","LA","30.273333000000001","-91.256699999999995",165344.086280305
1456,"Rayne","LA","30.2044","-92.248599999999996",1960.61956374935
1464,"Big Cajun 1","LA","30.6739","-91.355599999999995",4396408.46477078
1466,"Bar Harbor","ME","44.381700000000002","-68.286900000000003",43846.5829711217
1468,"Eastport","ME","44.913600000000002","-67.003299999999996",52580.2519369143
1469,"Ellsworth Hydro Station","ME","44.544199999999996","-68.430599999999998",0
1472,"Howland Hydro Station","ME","45.238599999999998","-68.657200000000003",0
1474,"Medway","ME","45.607799999999997","-68.544399999999996",58283.8724860033
1475,"Milford Hydro Station","ME","44.942064000000002","-68.645039999999995",0
1478,"Stillwater Hydro Station","ME","44.909399999999998","-68.683300000000003",0
1480,"Androscoggin 3","ME","44.135331999999998","-70.201498999999998",0
1481,"Bar Mills","ME","43.613599999999998","-70.552499999999995",0
1482,"Bonny Eagle","ME","43.687688000000001","-70.611553000000001",0
1483,"Brunswick Hydro","ME","43.920485999999997","-69.967819000000006",0
1484,"Cape Gas Turbine","ME","43.643599999999999","-70.254400000000004",787125.09836602
1486,"Cataract Hydro","ME","43.495600000000003","-70.447199999999995",0
1487,"Continental Mills","ME","44.092001000000003","-70.221923000000004",0
1488,"Deer Rips","ME","44.134571999999999","-70.203715000000003",0
1490,"Fort Halifax","ME","44.538611000000003","-69.627776999999995",NA
1491,"Gulf Island","ME","44.152853999999998","-70.209378000000001",0
1492,"Harris Hydro","ME","45.459200000000003","-69.865799999999993",0
1493,"Hiram","ME","43.852499999999999","-70.796899999999994",0
1497,"Messalonskee 2 (Oakland)","ME","44.548544","-69.710403999999997",0
1498,"Messalonskee 3","ME","44.569871999999997","-69.681841000000006",0
1500,"Messalonskee 5","ME","44.534396999999998","-69.652231999999998",0
1501,"North Gorham","ME","43.802517000000002","-70.449920000000006",0
1504,"Shawmut","ME","44.629517","-69.583527000000004",0
1505,"Skelton","ME","43.570799999999998","-70.558300000000003",0
1507,"William F Wyman","ME","43.750799999999998","-70.156700000000001",75615367.4906714
1508,"West Buxton","ME","43.666870000000003","-70.602125000000001",0
1509,"Weston Hydro","ME","44.763874999999999","-69.718279999999993",0
1510,"Williams Hydro","ME","44.9589","-69.8703",0
1511,"Wyman Hydro","ME","45.070300000000003","-69.906400000000005",0
1513,"Caribou Generation Station","ME","46.847999999999999","-68.002600000000001",0
1514,"Flos Inn Diesel","ME","46.71","-67.955600000000004",NA
1516,"Squa Pan Hydro Station","ME","46.556477000000001","-68.325537999999995",0
1552,"C P Crane","MD","39.323604000000003","-76.365119000000007",90343350.8652411
1553,"Gould Street","MD","39.266300000000001","-76.604699999999994",2054756.94476422
1554,"Herbert A Wagner","MD","39.178100000000001","-76.526799999999994",703777215.165853
1555,"Notch Cliff","MD","39.421700000000001","-76.508700000000005",1099732.72252663
1556,"Perryman","MD","39.442836","-76.221761000000001",28533633.4240489
1557,"Philadelphia","MD","39.2986","-76.563599999999994",6115248.80710942
1559,"Riverside (MD)","MD","39.236899999999999","-76.513300000000001",4858301.12487839
1560,"Westport","MD","39.271900000000002","-76.618600000000001",897902.916585118
1563,"Crisfield","MD","37.9833","-75.833299999999994",581005.418254968
1564,"Vienna Operations","MD","38.4878","-75.820800000000006",5781714.3179464
1567,"Deep Creek","MD","39.523000000000003","-79.412999999999997",0
1570,"FirstEnergy R Paul Smith Power Station","MD","39.594999999999999","-77.826939999999993",NA
1571,"Chalk Point LLC","MD","38.544400000000003","-76.686099999999996",1669118130.28678
1572,"Dickerson","MD","39.209699999999998","-77.464399999999998",839685377.74751
1573,"Morgantown Generating Plant","MD","38.359200000000001","-76.976699999999994",3344123159.78805
1574,"Conowingo","MD","39.657200000000003","-76.175200000000004",0
1580,"Easton","MD","38.778599999999997","-76.076899999999995",1546546.89692218
1585,"Exelon Edgar LLC","MA","42.241543999999998","-70.964888999999999",NA
1586,"Exelon Framingham LLC","MA","42.267200000000003","-71.398300000000006",1088907.735633
1587,"Exelon L Street","MA","42.339199999999998","-71.035300000000007",305627.488619265
1588,"Mystic Generating Station","MA","42.390799999999999","-71.067499999999995",167099496.410836
1589,"New Boston Generating Station","MA","42.339167000000003","-71.035276999999994",NA
1590,"Pilgrim Nuclear Power Station","MA","41.943800000000003","-70.578000000000003",121791724.715463
1592,"Exelon Medway LLC","MA","42.140028000000001","-71.446440999999993",3108931.52590477
1595,"Kendall Square Station","MA","42.363300000000002","-71.0792",128298456.49849
1597,"Oak Bluffs Diesel Generating Facility","MA","41.450800000000001","-70.554699999999997",73281.3390190989
1599,"Canal","MA","41.769399999999997","-70.509699999999995",98431909.5093753
1603,"Boatlock","MA","42.208599999999997","-72.601399999999998",0
1604,"Chemical","MA","42.191899999999997","-72.609700000000004",0
1605,"Hadley Falls","MA","42.2119","-72.6036",0
1606,"Mount Tom","MA","42.2806","-72.605500000000006",72211.9101661447
1607,"Riverside Holyoke","MA","42.200592","-72.594431999999998",0
1615,"Nantucket","MA","41.258299999999998","-70.051699999999997",65311.5478054165
1619,"Brayton Point","MA","41.710299999999997","-71.193100000000001",1376527753.7498
1620,"Deerfield 5","MA","42.691180000000003","-72.956100000000006",0
1626,"Salem Harbor","MA","42.525599999999997","-70.877200000000002",19626183.772007
1629,"Cabot","MA","42.587499999999999","-72.579300000000003",0
1630,"Cobble Mountain","MA","42.117111999999999","-72.864662999999993",0
1631,"Doreen","MA","42.443300000000001","-73.205799999999996",76566.0133531725
1634,"Gardners Falls","MA","42.5914","-72.730800000000002",0
1637,"Putts Bridge","MA","42.157896000000001","-72.486429999999999",0
1638,"Redbridge","MA","42.176046999999997","-72.409520999999998",0
1642,"NAEA Energy Massachusetts LLC","MA","42.094999999999999","-72.594999999999999",6345286.77756954
1643,"Woodland Road","MA","42.336215000000003","-73.235485999999995",44483.1477645468
1660,"Potter Station 2","MA","42.234999999999999","-70.967200000000005",10249883.6228588
1670,"High Street Station","MA","42.698599999999999","-70.869699999999995",184612.22027188
1678,"Waters River","MA","42.542949","-70.928314",2079253.47988096
1682,"Cleary Flood","MA","41.865299999999998","-71.106099999999998",15946380.7735328
1693,"Alcona","MI","44.561960999999997","-83.804505000000006",0
1694,"Allegan Dam","MI","42.563803","-85.953975999999997",0
1695,"B C Cobb","MI","43.258768000000003","-86.242267999999996",348110196.20019
1696,"B E Morrow","MI","42.280222000000002","-85.492547999999999",NA
1698,"C W Tippy","MI","44.259135000000001","-85.939565000000002",0
1700,"Cooke","MI","44.472624000000003","-83.571946999999994",0
1701,"Croton","MI","43.437322000000002","-85.664462",0
1702,"Dan E Karn","MI","43.644995999999999","-83.840074000000001",183023844.590948
1704,"Five Channels","MI","44.455517999999998","-83.676274000000006",0
1705,"Foote","MI","44.435381","-83.440721999999994",0
1706,"Gaylord - Consumers","MI","45.0306","-84.703900000000004",1799267.45942885
1707,"Hardy","MI","43.486618","-85.629866000000007",0
1708,"Hodenpyl","MI","44.362859999999998","-85.819968000000003",0
1710,"J H Campbell","MI","42.910296000000002","-86.200739999999996",1216798362.04679
1712,"Loud","MI","44.463099999999997","-83.720799999999997",0
1713,"Ludington","MI","43.894199999999998","-86.444699999999997",0
1714,"Mio","MI","44.661113999999998","-84.131691000000004",0
1715,"Palisades","MI","42.323","-86.314599999999999",122926896.498339
1716,"Rogers","MI","43.613000999999997","-85.479468999999995",0
1718,"Straits","MI","45.766858999999997","-84.756601000000003",380063.306792003
1719,"Thetford","MI","43.156745999999998","-83.628589000000005",64241.3431249745
1720,"J C Weadock","MI","43.639927","-83.844712000000001",460811835.319391
1722,"Webber","MI","42.952800000000003","-84.902500000000003",0
1723,"J R Whiting","MI","41.792113999999998","-83.449479999999994",208076951.935828
1725,"Colfax","MI","42.658653000000001","-84.095180999999997",130037.456000882
1726,"Conners Creek","MI","42.359200000000001","-82.959699999999998",NA
1727,"Dayton (MI)","MI","42.175800000000002","-83.533600000000007",NA
1728,"Delray","MI","42.294699999999999","-83.101900000000001",1613073.11266061
1729,"Fermi","MI","41.963099999999997","-83.258099999999999",165726424.26216
1730,"Hancock","MI","42.549700000000001","-83.442499999999995",920148.561301327
1731,"Harbor Beach","MI","43.851900000000001","-82.643600000000006",NA
1732,"Marysville","MI","42.925600000000003","-82.460599999999999",NA
1733,"Monroe (MI)","MI","41.890599999999999","-83.346400000000003",1831520133.4577
1734,"Northeast (MI)","MI","42.45","-83.0381",286375.359432374
1735,"Oliver","MI","43.8264","-83.238299999999995",14946.5413496216
1737,"Placid 12","MI","42.710599999999999","-83.456900000000005",165710.547024425
1739,"Putnam (MI)","MI","42.710799999999999","-83.456100000000006",142845.139644595
1740,"River Rouge","MI","42.273899999999998","-83.111900000000006",729878349.301176
1741,"Slocum","MI","42.122500000000002","-83.185000000000002",104651.252039088
1743,"St Clair","MI","42.764200000000002","-82.471900000000005",463662010.926228
1744,"Superior","MI","42.2639","-83.642200000000003",0
1745,"Trenton Channel","MI","42.121699999999997","-83.180800000000005",573355491.885755
1746,"Wilmot","MI","43.456600000000002","-83.188900000000004",111246.063298973
1750,"Manistique","MI","45.955013999999998","-86.256291000000004",139484.077535311
1751,"Edison Sault","MI","46.516199999999998","-84.372900000000001",0
1753,"Berrien Springs","MI","41.943899999999999","-86.328900000000004",0
1754,"Buchanan (MI)","MI","41.839565999999998","-86.351050000000001",0
1756,"Saxon Falls","WI","46.539200000000001","-90.374200000000002",0
1757,"Superior Falls","MI","46.564601000000003","-90.416146999999995",0
1760,"Constantine","MI","41.843600000000002","-85.669399999999996",0
1761,"Mottville","MI","41.805599999999998","-85.750500000000002",0
1769,"Presque Isle","MI","46.578899999999997","-87.394999999999996",317742402.310859
1771,"Escanaba","MI","45.771667000000001","-87.063922000000005",238124.845558767
1772,"John H Warden","MI","46.755299999999998","-88.455799999999996",36182798.6818899
1773,"Prickett","MI","46.726100000000002","-88.662499999999994",0
1774,"Victoria Dam","MI","46.696399999999997","-89.2089",0
1775,"Brule","WI","45.947200000000002","-88.218900000000005",0
1776,"Chalk Hill","MI","45.513599999999997","-87.801100000000005",0
1777,"Hemlock Falls","MI","46.131100000000004","-88.224999999999994",0
1778,"Kingsford","MI","45.807955999999997","-88.125120999999993",0
1780,"Michigamme Falls","MI","45.955300000000001","-88.195800000000006",0
1781,"Peavy Falls","MI","45.990780999999998","-88.210514000000003",0
1784,"Twin Falls (MI)","MI","45.871899999999997","-88.069400000000002",0
1785,"Way Dam","MI","46.159199999999998","-88.235299999999995",0
1786,"White Rapids","MI","45.482084","-87.802177999999998",0
1787,"Grand Rapids","MI","45.354700000000001","-87.6494",0
1818,"Clinton","MI","42.072499999999998","-83.971400000000003",1942.67284546154
1819,"Coldwater","MI","41.932215999999997","-84.995450000000005",NA
1821,"Crystal Falls","MI","46.106278000000003","-88.334530999999998",0
1822,"Mistersky","MI","42.303899999999999","-83.090299999999999",0
1825,"J B Sims","MI","43.070599999999999","-86.234999999999999",400573.665993558
1826,"Grand Haven Diesel Plant","MI","43.061188999999999","-86.236639999999994",38563.4500463988
1827,"Hart","MI","43.706699999999998","-86.436700000000002",0
1829,"Hillsdale","MI","41.906100000000002","-84.631900000000002",0
1830,"James De Young","MI","42.7956","-86.113299999999995",0
1831,"Eckert Station","MI","42.718389999999999","-84.558080000000004",64921028.5433629
1832,"Erickson Station","MI","42.692222000000001","-84.657222000000004",101159225.26867
1837,"Lowell","MI","42.935000000000002","-85.337800000000001",NA
1840,"Plant Four","MI","46.575964999999997","-87.403578999999993",138236.410540197
1842,"James R Smith","MI","46.571638999999998","-87.410454999999999",0
1843,"Shiras","MI","46.530597999999998","-87.392206000000002",33852084.933447
1844,"Marshall (MI)","MI","42.271700000000003","-84.941100000000006",12682073.2999498
1846,"Newberry","MI","46.593299999999999","-85.818299999999994",14972.0039413586
1848,"Norway (MI)","MI","45.788899999999998","-87.905799999999999",0
1851,"Frank Jenkins","MI","42.864400000000003","-84.903099999999995",0
1852,"St Louis","MI","43.401899999999998","-84.601399999999998",3895.77653576169
1853,"Main Street (MI)","MI","43.728900000000003","-83.436700000000002",1159.53383161794
1855,"Sturgis City  Diesel Plant","MI","41.799199999999999","-85.425600000000003",23527.1200294214
1856,"Hydro Plant","MI","41.9711","-85.5381",0
1865,"Saint Marys Falls","MI","46.506250000000001","-84.349266999999998",0
1866,"Wyandotte","MI","42.208100000000002","-83.145300000000006",47088244.8871619
1867,"Zeeland","MI","42.806699999999999","-86.055800000000005",28285.3944520353
1868,"Dafter","MI","46.3292","-84.384699999999995",151349.645284755
1871,"Kleber","MI","45.391984000000001","-84.333257000000003",0
1873,"Tower","MI","45.362819999999999","-84.294970000000006",100067.985526428
1874,"Caro","MI","43.4878","-83.388099999999994",0
1875,"Ubly","MI","43.680599999999998","-82.947800000000001",179.609862504305
1877,"George Johnson","MI","43.839300000000001","-85.426000000000002",858501.201677639
1879,"Scottville","MI","43.954999999999998","-86.293610999999999",NA
1880,"Claude Vandyke","MI","42.731000000000002","-85.855099999999993",134913.976379002
1881,"Vestaburg","MI","43.401600000000002","-84.914100000000005",105336.306482674
1888,"Fox Lake","MN","43.672800000000002","-94.707499999999996",354525.986460368
1889,"Hills","MN","43.528874000000002","-96.364722",1196.74181163921
1891,"Syl Laskin","MN","47.5306","-92.161900000000003",42532584.1830822
1892,"Blanchard","MN","45.861400000000003","-94.359200000000001",0
1893,"Clay Boswell","MN","47.261099999999999","-93.652799999999999",820680809.203605
1894,"Fond Du Lac","MN","46.666767999999998","-92.293897000000001",0
1895,"Knife Falls","MN","46.726627000000001","-92.448618999999994",0
1896,"Little Falls (MN)","MN","45.975012999999997","-94.369094000000004",0
1897,"M L Hibbard","MN","46.735331000000002","-92.151711000000006",44030161.9728531
1898,"Pillager","MN","46.316032999999997","-94.484943999999999",0
1899,"Scanlon","MN","46.709125999999998","-92.421733000000003",0
1900,"Sylvan","MN","46.305","-94.377499999999998",0
1901,"Thomson","MN","46.655000000000001","-92.333299999999994",0
1902,"Winton","MN","47.934399999999997","-91.763900000000007",0
1904,"Black Dog","MN","44.8108","-93.250100000000003",184525398.767322
1910,"Granite City","MN","45.575600000000001","-94.140799999999999",66377.943656462
1911,"Hennepin Island","MN","44.982359000000002","-93.254163000000005",0
1912,"High Bridge","MN","44.931399999999996","-93.111699999999999",67002969.5186101
1913,"Inver Hills","MN","44.780999999999999","-93.042000000000002",1586829.03542497
1914,"Key City","MN","44.197400000000002","-94.007800000000003",16467.3228478249
1915,"Allen S King","MN","45.03","-92.778599999999997",298124228.925688
1918,"Minnesota Valley","MN","44.802778000000004","-95.526944",NA
1922,"Monticello Nuclear Facility","MN","45.333799999999997","-93.849299999999999",91282584.5400719
1925,"Prairie Island","MN","44.622","-92.633300000000006",176976447.24094
1926,"Red Wing","MN","44.569200000000002","-92.516912000000005",37239732.7744734
1927,"Riverside (MN)","MN","45.020299999999999","-93.275300000000001",68164927.66732
1929,"St James","MN","43.621667000000002","-95.678888999999998",13316.9354784533
1932,"West Fairbault","MN","44.269722000000002","-93.290555999999995",NA
1934,"Wilmarth","MN","44.1967","-94.000900000000001",37099581.5768322
1943,"Hoot Lake","MN","46.290641000000001","-96.043251999999995",63555348.8647258
1956,"Adrian","MN","43.639167","-95.943611000000004",8784.59414926655
1958,"Alexandria","MN","45.889167","-95.379722000000001",2393.48362327842
1960,"Austin Downtown","MN","43.670637999999997","-92.969284000000002",NA
1961,"Austin Northeast","MN","43.7014","-92.962599999999995",0
1964,"Benson City of","MN","45.314444000000002","-95.602777000000003",15812.2694686798
1966,"Blooming Prairie","MN","43.922499999999999","-93.124700000000004",34374.4988449561
1967,"Blue Earth","MN","43.637500000000003","-94.101667000000006",12680.3706850282
1969,"Delano","MN","45.041378000000002","-93.790521999999996",13597.0239875604
1970,"Detroit Lakes","MN","46.817500000000003","-95.843333000000001",17721.9638489551
1971,"Elk River City of","MN","45.315800000000003","-93.578100000000006",26812.1090990657
1972,"Fairfax","MN","44.527799999999999","-94.721699999999998",1884.23178853833
1973,"Fairmont (MN)","MN","43.657899999999998","-94.464699999999993",1168927.18469162
1975,"Glencoe","MN","44.770899999999997","-94.158199999999994",85009.9345905415
1976,"Grand Marais","MN","47.775799999999997","-90.339200000000005",43286.4059529076
1977,"Granite Falls","MN","44.811684999999997","-95.534549999999996",0
1979,"Hibbing","MN","47.429400000000001","-92.935000000000002",16806811.756415
1980,"Hutchinson Plant #1","MN","44.895741000000001","-94.368432999999996",1283469.60318261
1982,"Janesville","MN","44.112200000000001","-93.694400000000002",11764.9747490421
1983,"Kenyon Municipal","MN","44.268900000000002","-92.971400000000003",4812.42983829385
1985,"Lake Crystal","MN","44.106887999999998","-94.219696999999996",12603.9829098172
1987,"Lanesboro","MN","43.720025999999997","-91.977738000000002",1782.38142159031
1989,"Litchfield","MN","45.115000000000002","-94.528099999999995",80473.3060443743
1990,"Luverne","MN","43.654443999999998","-96.201943999999997",15965.0450191018
1993,"Marshall (MN)","MN","44.446584999999999","-95.792118000000002",29511.1438231882
1994,"Melrose","MN","45.674999999999997","-94.815276999999995",19835.3589631265
1995,"Moorhead","MN","46.853611000000001","-96.731110999999999",0
1996,"Moose Lake","MN","46.448900000000002","-92.781400000000005",81607.6065170994
1997,"Mora","MN","45.895800000000001","-93.294200000000004",131475.820449815
1998,"Mountain Lake","MN","43.9405","-94.943399999999997",33946.5959442197
1999,"New Prague","MN","44.540300000000002","-93.580600000000004",163486.439123864
2001,"New Ulm","MN","44.315899999999999","-94.458100000000002",2726678.23925625
2002,"North Branch (MN)","MN","45.5017","-92.968599999999995",100679.087728116
2003,"Owatonna","MN","44.083300000000001","-93.23",101397.920588236
2004,"Preston (MN)","MN","43.672199999999997","-92.084699999999998",18799.165608784
2005,"Princeton (MN)","MN","45.573099999999997","-93.576099999999997",71320.7194553496
2007,"Rochester Hydro","MN","44.212980999999999","-92.480176999999998",0
2008,"Silver Lake","MN","44.028179999999999","-92.460376999999994",5380002.28460531
2009,"Redwood Falls","MN","44.543100000000003","-95.117800000000003",93439.3071958074
2011,"Sleepy Eye","MN","44.298099999999998","-94.574399999999997",8428.11786494849
2012,"Springfield (MN)","MN","44.244700000000002","-94.975800000000007",25284.3535948455
2013,"Spring Valley","MN","43.688899999999997","-92.395600000000002",NA
2014,"Thief River Falls","MN","48.114261999999997","-96.179175999999998",3437.44988449561
2015,"Truman","MN","43.828415","-94.436908000000003",6277.51477075584
2018,"Virginia","MN","47.522427999999998","-92.540951000000007",17051159.4120134
2020,"Wells IC","MN","43.744529999999997","-93.724129000000005",102292.227702684
2021,"Westbrook","MN","44.039900000000003","-95.442899999999995",7027.67531941324
2022,"Willmar","MN","45.121704999999999","-95.053235999999998",1467817.7847956
2023,"Windom","MN","43.868110000000001","-95.114444000000006",9497.54671790268
2024,"Worthington","MN","43.633490000000002","-95.609234000000001",31279.4115314926
2038,"Cambridge CT","MN","45.600999999999999","-93.208100000000002",3513094.48074313
2039,"Elk River","MN","45.296796999999998","-93.558447000000001",64986558.9739845
2042,"Maple Lake","MN","45.229073","-94.009673000000006",181420.966126157
2046,"Eaton","MS","31.3294","-89.268100000000004",NA
2047,"Chevron Oil","MS","30.34","-88.491900000000001",111338619.940951
2048,"Sweatt","MS","32.292499999999997","-88.746099999999998",1404812.01659005
2049,"Jack Watson","MS","30.4392","-89.028599999999997",381780505.330892
2050,"Baxter Wilson","MS","32.283099999999997","-90.930599999999998",5462483.55111058
2051,"Delta (MS)","MS","33.794699999999999","-90.713899999999995",NA
2052,"Natchez","MS","31.598700000000001","-91.346400000000003",NA
2053,"Rex Brown","MS","32.356954000000002","-90.212969999999999",8113808.61802444
2059,"L L Wilkins","MS","34.1845","-90.562662000000003",26449.6869424324
2060,"Third Street","MS","34.204999999999998","-90.577776999999998",NA
2062,"Henderson","MS","33.517315000000004","-90.209660999999997",1285385.7124058
2063,"Wright","MS","33.516582999999997","-90.183336999999995",0
2067,"Yazoo","MS","32.845799999999997","-90.421099999999996",30358.551735751
2068,"Benndale","MS","30.8889","-88.805400000000006",112426.822854052
2070,"Moselle","MS","31.527999999999999","-89.300399999999996",68427603.1470583
2071,"Paulding","MS","32.030155000000001","-89.085549999999998",12196.5814420252
2076,"Asbury","MO","37.361314999999998","-94.589259999999996",106342091.28633
2078,"Grand Avenue","MO","39.105277999999998","-94.569721999999999",NA
2079,"Hawthorn","MO","39.130600000000001","-94.477800000000002",342994320.942282
2080,"Montrose","MO","38.311399999999999","-93.934799999999996",285609512.914243
2081,"Northeast (MO)","MO","39.122799999999998","-94.560599999999994",897327.195403775
2082,"Fairgrounds","MO","38.593499999999999","-92.220600000000005",233390.115861383
2083,"Kirksville","MO","40.224525","-92.584928000000005",2334.58515115822
2090,"Nevada","MO","37.850299999999997","-94.344399999999993",36717.0572847605
2092,"Ralph Green","MO","38.787579999999998","-94.277688999999995",1611436.2196236
2094,"Sibley","MO","39.178319000000002","-94.184444999999997",166754375.237474
2096,"Viaduct","MO","37.257221999999999","-89.564166999999998",NA
2098,"Lake Road (MO)","MO","39.724600000000002","-94.877300000000005",71387590.4327485
2099,"Niangua","MO","37.938499999999998","-92.847701000000001",0
2102,"Howard Bend","MO","38.681797000000003","-90.540047999999999",11127.152589071
2103,"Labadie","MO","38.562244","-90.837686000000005",1421955124.71011
2104,"Meramec","MO","38.401699999999998","-90.335800000000006",504643859.512585
2106,"Osage Dam","MO","38.2044","-92.623900000000006",0
2107,"Sioux","MO","38.915478999999998","-90.290246999999994",403867571.072658
2108,"Taum Sauk","MO","37.520833000000003","-90.834721999999999",0
2113,"Albany","MO","40.247799999999998","-94.330299999999994",152.775550422027
2115,"Butler","MO","38.264408000000003","-94.344385000000003",11865.5677494441
2120,"Carrollton","MO","39.361699999999999","-93.495599999999996",NA
2121,"Carthage","MO","37.165300000000002","-94.308899999999994",98177.1505938513
2122,"Chillicothe","MO","39.783388000000002","-93.564111999999994",94911.8508248189
2123,"Columbia (MO)","MO","38.964646000000002","-92.316767999999996",781084.983996279
2124,"Stockton Hydro","MO","37.693600000000004","-93.769099999999995",0
2125,"Fayette","MO","39.140599999999999","-92.68",NA
2126,"Fulton (MO)","MO","38.868094999999997","-91.947779999999995",74562.0941059862
2127,"Gallatin (MO)","MO","39.914400000000001","-93.9619",3310.13692581058
2131,"Higginsville","MO","39.073315000000001","-93.714748",47536.9140896803
2132,"Blue Valley","MO","39.091900000000003","-94.326099999999997",147866.004344048
2134,"Jackson Square","MO","39.094574000000001","-94.411522000000005",194636.051237662
2135,"Station H","MO","39.106699999999996","-94.380399999999995",419026.786688108
2136,"Station I","MO","39.055954","-94.392956999999996",76667.8637201205
2137,"Jackson (MO)","MO","37.384700000000002","-89.660600000000002",54230.4897396699
2138,"Kahoka","MO","40.422499999999999","-91.720600000000005",2857.2971559256
2139,"Kennett","MO","36.243099999999998","-90.049499999999995",288667.04671413
2140,"La Plata","MO","40.0122","-92.507499999999993",130011.993409145
2141,"Macon","MO","39.7378","-92.468900000000005",152.775550422027
2142,"Malden","MO","36.553100000000001","-89.968199999999996",7511.46456241632
2144,"Marshall (MO)","MO","39.122799999999998","-93.206400000000002",29244.2285491189
2145,"Memphis","MO","40.375","-92.125",5652.695365615
2146,"Monroe (MO)","MO","39.652500000000003","-91.799400000000006",0
2148,"Odessa","MO","38.997852000000002","-93.965655999999996",0
2150,"Palmyra Municipal","MO","39.796100000000003","-91.555599999999998",0
2158,"Coleman","MO","36.878500000000003","-89.621399999999994",NA
2161,"James River Power Station","MO","37.108611000000003","-93.261944",81736402.1730469
2162,"Main Street (MO)","MO","37.209400000000002","-93.296700000000001",NA
2163,"Trenton Diesel","MO","40.066099999999999","-93.604200000000006",NA
2164,"Unionville City of","MO","40.476742000000002","-93.010018000000002",1527.75550422027
2165,"Vandalia","MO","39.203600000000002","-91.861000000000004",0
2166,"Table Rock","MO","36.597000000000001","-93.308599999999998",0
2167,"New Madrid","MO","36.514699999999998","-89.561700000000002",646797350.282837
2168,"Thomas Hill","MO","39.552199999999999","-92.638099999999994",681759766.834115
2169,"Chamois","MO","38.683900000000001","-91.755799999999994",NA
2171,"Missouri City","MO","39.231534000000003","-94.307979000000003",0
2176,"Glendive GT","MT","47.053899999999999","-104.74",723855.835995242
2177,"Miles City GT","MT","46.411200000000001","-105.7953",151496.474437616
2181,"Black Eagle","MT","47.521331000000004","-111.261442",0
2182,"Cochrane","MT","47.537500000000001","-111.194969",0
2185,"Hauser","MT","46.765940999999998","-111.88734100000001",0
2186,"Holter","MT","46.991500000000002","-112.0047",0
2187,"J E Corette Plant","MT","45.775620000000004","-108.480999",58409919.3367742
2188,"Kerr","MT","47.677700000000002","-114.23390000000001",0
2190,"Milltown","MT","46.869722000000003","-113.878055",NA
2191,"Morony","MT","47.581736999999997","-111.06089799999999",0
2192,"Mystic","MT","45.225740999999999","-109.762489",0
2193,"Rainbow (MT)","MT","47.534399999999998","-111.2045",0
2194,"Ryan","MT","47.569938999999998","-111.122546",0
2195,"Thompson Falls","MT","47.593155000000003","-115.358237",0
2196,"Old Faithful","WY","44.453299999999999","-110.8347",33177.7570333169
2199,"Noxon Rapids","MT","47.953888999999997","-115.733611",0
2203,"Hungry Horse","MT","48.341521","-114.01443",0
2204,"Yellowtail","MT","45.307406","-107.957515",0
2214,"Ansley","NE","41.352800000000002","-99.497799999999998",1599.25649287339
2215,"Auburn","NE","40.388300000000001","-95.846400000000003",43908.7384255377
2216,"Arnold","NE","41.423889000000003","-100.19416699999999",611.102201688108
2217,"Beaver City","NE","40.138100000000001","-99.827200000000005",7333.22642025729
2221,"Broken Bow","NE","41.403100000000002","-99.639200000000002",16880.4687556692
2222,"Burwell","NE","41.914400000000001","-98.990600000000001",7078.60050288725
2223,"Cambridge","NE","40.226700000000001","-100.1358",10363.2748369608
2225,"Campbell Village","NE","40.371699999999997","-98.723600000000005",152.775550422027
2226,"Canaday","NE","40.694200000000002","-99.701099999999997",277994.52840171
2227,"Jeffrey","NE","40.959404999999997","-100.39790499999999",0
2228,"Johnson 1","NE","40.693600000000004","-99.817800000000005",0
2229,"Johnson 2","NE","40.683900000000001","-99.744699999999995",0
2230,"Chappell","NE","41.105600000000003","-102.47029999999999",2189.78288938239
2231,"Crete","NE","40.625300000000003","-96.955799999999996",38092.3509236381
2232,"Curtis","NE","40.6325","-100.51472200000001",1217.20326301907
2233,"David City","NE","41.254652","-97.119202000000001",31745.9647763661
2234,"Deshler","NE","40.140799999999999","-97.7239",152.775550422027
2235,"Emerson","NE","42.276400000000002","-96.728899999999996",4043.60812272619
2236,"Fairbury","NE","40.133871999999997","-97.184286",18989.748183559
2237,"Falls City","NE","40.055","-95.6083",143091.070471257
2238,"Franklin (NE)","NE","40.095300000000002","-98.954400000000007",14260.6224243479
2240,"Lon Wright","NE","41.428100000000001","-96.462299999999999",57678946.1691792
2241,"C W Burdick","NE","40.922800000000002","-98.326899999999995",305272.856139927
2243,"Don Henry","NE","40.583154999999998","-98.420055000000005",8121.85179023627
2244,"North Denver","NE","40.598838999999998","-98.388630000000006",54062.1940750969
2248,"Kimball","NE","41.234999999999999","-103.6597",NA
2249,"Laurel","NE","42.430539000000003","-97.090813999999995",573.179773044389
2250,"J Street","NE","40.807879999999997","-96.710667000000001",36083.2049799704
2253,"Lyons","NE","41.9375","-96.473100000000002",152.775550422027
2255,"Nebraska City # 1","NE","40.680599999999998","-95.847499999999997",32560.7955125315
2256,"Syracuse # 2","NE","40.675600000000003","-96.177778000000004",1330.14174652853
2260,"Columbus","NE","41.463900000000002","-97.328299999999999",0
2265,"Hallam","NE","40.558900000000001","-96.784700000000001",751200.968300215
2266,"Hebron","NE","40.187927999999999","-97.577856999999995",386140.203691673
2268,"Kearney","NE","40.703510999999999","-99.100752999999997",0
2271,"McCook","NE","40.221400000000003","-100.6508",569496.326789842
2273,"Monroe (NE)","NE","41.487200000000001","-97.607799999999997",0
2274,"North Platte","NE","41.086399999999998","-100.7594",0
2277,"Sheldon","NE","40.558900000000001","-96.784700000000001",134786510.576776
2278,"Spencer Hydro","NE","42.809336999999999","-98.656283000000002",0
2289,"Fort Calhoun","NE","41.520522","-96.077511000000001",88338400.5722159
2290,"Jones Street","NE","41.251488000000002","-95.922681999999995",401392.296142139
2291,"North Omaha","NE","41.329090000000001","-95.944659999999999",309398030.649443
2292,"Sarpy County","NE","41.170594000000001","-95.970602999999997",4665742.75195171
2294,"Ord","NE","41.602499999999999","-98.928299999999993",77784.7026903361
2295,"Oxford (NE)","NE","40.258099999999999","-99.610799999999998",10518.421915603
2296,"Pender","NE","42.090299999999999","-96.776899999999998",5067.65585048709
2297,"Plainview Muncipal Power","NE","42.35","-97.790555999999995",4608.72910439781
2299,"Red Cloud","NE","40.096400000000003","-98.522800000000004",40918.3849213662
2300,"Sargent","NE","41.639200000000002","-99.374200000000002",2902.73545801851
2302,"Sidney (NE)","NE","41.145634000000001","-102.977836",280.088509107049
2303,"Spalding","NE","41.681379999999997","-98.367559999999997",432.864059529076
2305,"Stuart (NE)","NE","42.571399999999997","-99.139399999999995",2493.19064435909
2308,"Tecumseh","NE","40.366399999999999","-96.19",44163.7058285683
2310,"Wahoo","NE","41.2089","-96.621700000000004",27492.6539210205
2311,"Wakefield","NE","42.264400000000002","-96.875600000000006",19504.3452705454
2312,"Wayne IC","NE","42.227800000000002","-97.018299999999996",94644.4534864457
2313,"West Point Municipal","NE","41.8292","-96.716099999999997",9620.11556965601
2315,"Wilber","NE","40.479700000000001","-96.960400000000007",15455.7931843617
2316,"Wisner","NE","41.990299999999998","-96.920299999999997",4328.64059529076
2322,"Clark (NVE)","NV","36.087499999999999","-115.05070000000001",45455124.2537889
2324,"Reid Gardner","NV","36.657347000000001","-114.633263",691511453.848678
2326,"Sunrise","NV","36.138399999999997","-115.036",NA
2330,"Fort Churchill","NV","39.128100000000003","-119.1322",18313282.0102769
2336,"Tracy","NV","39.5625","-119.52500000000001",277415640.73193
2341,"Mohave","NV","35.145800000000001","-114.5917",NA
2349,"Comerford","NH","44.325052999999997","-72.000974999999997",0
2351,"S C Moore","NH","44.335599999999999","-71.874200000000002",0
2352,"Vernon Dam","VT","42.771650000000001","-72.514600000000002",0
2353,"Wilder","VT","43.667926999999999","-72.303641999999996",0
2354,"Amoskeag","NH","43.002229999999997","-71.472080000000005",0
2355,"Ayers Island","NH","43.597848999999997","-71.717682999999994",0
2356,"Eastman Falls","NH","43.447218999999997","-71.657899999999998",0
2357,"Garvins Falls","NH","43.165523999999998","-71.509440999999995",0
2358,"Gorham","NH","44.408278000000003","-71.195353999999995",0
2359,"Hooksett","NH","43.101699000000004","-71.465661999999995",0
2360,"Jackman","NH","43.110550000000003","-71.948890000000006",0
2362,"Lost Nation","NH","44.595117000000002","-71.494398000000004",451935.540740093
2364,"Merrimack","NH","43.141100000000002","-71.469200000000001",637200405.050673
2367,"Schiller","NH","43.097799999999999","-70.784199999999998",149236742.769787
2368,"Smith (NH)","NH","44.469462999999998","-71.178061999999997",0
2369,"White Lake","NH","43.847799999999999","-71.206900000000005",469581.116813837
2378,"B L England","NJ","39.290799999999997","-74.636399999999995",165714057.920131
2379,"Carlls Corner","NJ","39.454700000000003","-75.201400000000007",3467489.80865407
2380,"Cedar Station","NJ","39.689300000000003","-74.261799999999994",932541.959776053
2382,"Middle Station","NJ","39.026899999999998","-74.877200000000002",843830.290164329
2383,"Missouri Avenue","NJ","39.366199999999999","-74.444100000000006",758657.920804049
2384,"Deepwater","NJ","39.683100000000003","-75.508300000000006",93204.510632447
2385,"Werner","NJ","40.491236000000001","-74.280989000000005",878433.952334918
2388,"Oyster Creek","NJ","39.814300000000003","-74.206199999999995",102406750.086486
2390,"Sayreville","NJ","40.476525000000002","-74.352335999999994",907985.526491648
2393,"Gilbert","NJ","40.565832999999998","-75.163888999999998",11257940.0001371
2397,"PSEG Bayonne Generating Station","NJ","40.660832999999997","-74.085278000000002",NA
2398,"Bergen Generating Station","NJ","40.837499999999999","-74.0244",420214072.255051
2399,"PSEG Burlington Generating Station","NJ","40.076611","-74.879171999999997",14932360.5694868
2400,"PSEG Edison Generating Station","NJ","40.491100000000003","-74.395600000000002",5467804.15373852
2401,"PSEG Essex Generating Station","NJ","40.737200000000001","-74.120599999999996",13845221.6393255
2403,"PSEG Hudson Generating Station","NJ","40.747799999999998","-74.072199999999995",96248040.4192777
2404,"PSEG Kearny Generating Station","NJ","40.737282999999998","-74.096463999999997",55393738.5845621
2406,"PSEG Linden Generating Station","NJ","40.621699999999997","-74.2072",376931123.421247
2408,"PSEG Mercer Generating Station","NJ","40.179200000000002","-74.733900000000006",176982564.381541
2409,"PSEG National Park Generating Station","NJ","39.86","-75.185299999999998",19402.4949035974
2410,"PSEG Salem Generating Station","NJ","39.462499999999999","-75.535799999999995",344463721.331578
2411,"PSEG Sewaren Generating Station","NJ","40.555799999999998","-74.246899999999997",6495121.89802517
2434,"Howard Down","NJ","39.488900000000001","-75.034700000000001",6748704.2619033
2442,"Four Corners","NM","36.69","-108.48139999999999",1793749604.79368
2444,"Rio Grande","NM","31.8047","-106.5472",96447848.7070423
2446,"Maddox","NM","32.714224000000002","-103.301469",41220312.0163776
2447,"Las Vegas","NM","35.599699999999999","-105.2269",NA
2450,"Reeves","NM","35.170999999999999","-106.6019",7938179.86880377
2451,"San Juan","NM","36.800600000000003","-108.43859999999999",2399124365.7871
2453,"Carlsbad","NM","32.417999999999999","-104.21556",52049.620668926
2454,"Cunningham","NM","32.713099999999997","-103.3533",102994240.145387
2465,"Animas","NM","36.725138000000001","-108.19202",11896160.3980036
2469,"Tucumcari","NM","35.168056","-103.71805500000001",NA
2475,"Algodones","NM","35.384444000000002","-106.464167",NA
2480,"Danskammer Generating Station","NY","41.571247","-73.974981",0
2481,"Dashville","NY","41.8217","-74.049700000000001",0
2483,"Neversink","NY","41.819400000000002","-74.635800000000003",0
2485,"South Cairo","NY","42.291274999999999","-73.986452",24113.0743749433
2486,"Sturgeon","NY","41.848191","-74.046678",0
2487,"West Coxsackie","NY","42.343499999999999","-73.835300000000004",42773.8934591518
2490,"Arthur Kill Generating Station","NY","40.591563999999998","-74.200035",110562437.463971
2491,"Charles Poletti","NY","40.776389000000002","-73.910832999999997",NA
2493,"East River","NY","40.728099999999998","-73.974199999999996",294770997.972499
2494,"Gowanus Gas Turbines Generating","NY","40.663499999999999","-74.005099999999999",3034760.90968777
2496,"Hudson Avenue","NY","40.705199999999998","-73.980699999999999",544008.272461101
2497,"Indian Point 2","NY","41.270555999999999","-73.952699999999993",175865084.703593
2499,"Narrows Gas Turbines Generating","NY","40.648611000000002","-74.020832999999996",5703797.85484301
2500,"Ravenswood","NY","40.759166999999998","-73.946111000000002",451347176.431501
2502,"Waterside","NY","40.753332999999998","-73.975832999999994",NA
2503,"59th Street","NY","40.771284999999999","-73.991150000000005",61000.5370918599
2504,"74th Street","NY","40.768000000000001","-73.951499999999996",245866.785812515
2511,"E F Barrett","NY","40.616689000000001","-73.647880999999998",162240725.628982
2512,"East Hampton","NY","40.961706","-72.210277000000005",2106596.60217759
2513,"Far Rockaway","NY","40.610889999999998","-73.760999999999996",NA
2514,"Glenwood","NY","40.827148999999999","-73.647473000000005",1887338.22473025
2515,"Montauk","NY","41.042499999999997","-71.957778000000005",NA
2516,"Northport","NY","40.923565000000004","-73.342322999999993",336639430.185313
2517,"Port Jefferson","NY","40.949696000000003","-73.078507000000002",63778284.3455571
2518,"Shoreham","NY","40.961590000000001","-72.864975999999999",410100.502516194
2519,"South Hampton","NY","40.899996999999999","-72.381977000000006",220506.044442459
2520,"Southold","NY","41.105899999999998","-72.376099999999994",148854.311294528
2521,"West Babylon","NY","40.695484999999998","-73.348573000000002",810245.13166322
2522,"Cadyville","NY","44.695","-73.621899999999997",0
2527,"Greenidge Generation LLC","NY","42.678899999999999","-76.948300000000003",0
2528,"Harris Lake","NY","43.971899999999998","-74.186099999999996",NA
2530,"High Falls - Saranac NY","NY","44.6389","-73.749200000000002",0
2532,"Kent Falls","NY","44.705300000000001","-73.596699999999998",0
2533,"Keuka","NY","42.494166999999997","-77.119444000000001",NA
2535,"Cayuga Operating Company","NY","42.602800000000002","-76.633600000000001",690571269.902729
2539,"Bethlehem Energy Center","NY","42.594195999999997","-73.763751999999997",271634554.929402
2540,"Allens Falls","NY","44.660338000000003","-74.860264999999998",0
2543,"Beardslee","NY","43.019112999999997","-74.741349",0
2544,"Belfort","NY","43.927500000000002","-75.333100000000002",0
2545,"Bennetts Bridge","NY","43.531700000000001","-75.953100000000006",0
2546,"Black River","NY","44.000121999999998","-75.813151000000005",0
2547,"Blake","NY","44.506473999999997","-74.753442000000007",0
2548,"Browns Falls","NY","44.211407000000001","-75.059441000000007",0
2549,"C R Huntley Generating Station","NY","42.97","-78.930000000000007",147496269.388227
2550,"Chasm","NY","44.753300000000003","-74.216899999999995",0
2551,"Colton","NY","44.5839","-74.958299999999994",0
2552,"Deferiet","NY","44.0381","-75.680599999999998",0
2554,"Dunkirk Generating Plant","NY","42.491467","-79.346631000000002",46271825.1692574
2555,"Eagle","NY","43.909714000000001","-75.200830999999994",0
2556,"Eel Weir","NY","44.638365","-75.490520000000004",0
